City_ID,City,Lat,Lng,Max Temp,Humidity,Cloudiness,Wind Speed,Country,Date
0,launceston,-41.45,147.1667,24.78,50,75,2.06,AU,1674351820
1,barra do garcas,-15.89,-52.2567,22.64,93,100,0.49,BR,1674351821
2,bluff,-46.6,168.3333,13.93,82,97,5.79,NZ,1674351623
3,provideniya,64.3833,-173.3,-26.37,81,34,4.03,RU,1674351707
4,billings,45.7833,-108.5007,4.17,48,75,8.23,US,1674351438
5,georgetown,5.4112,100.3354,26.96,93,20,1.54,MY,1674351610
6,sioux lookout,50.1001,-91.917,-5.96,86,100,2.57,CA,1674351751
7,atuona,-9.8,-139.0333,25.91,80,25,7.88,PF,1674351658
8,chuy,-33.6971,-53.4616,20.6,93,72,1.84,UY,1674351661
9,tarakan,3.3,117.6333,27.72,83,40,2.57,ID,1674351824
10,hobart,-42.8794,147.3294,19.04,83,84,2.08,AU,1674351430
11,cherskiy,68.75,161.3,-43.18,100,84,1.79,RU,1674351751
12,cape town,-33.9258,18.4232,22.99,71,40,3.09,ZA,1674351505
13,puerto ayora,-0.7393,-90.3518,24.19,96,52,0.89,EC,1674351591
14,taonan,45.3333,122.7833,-21.55,76,100,5.53,CN,1674351826
15,tasiilaq,65.6145,-37.6368,-16.91,47,31,10.58,GL,1674351632
16,dikson,73.5069,80.5464,-18.94,93,100,11.94,RU,1674351809
17,taltal,-25.4,-70.4833,19.59,78,16,0.93,CL,1674351827
18,port lincoln,-34.7333,135.8667,19.98,64,7,6.49,AU,1674351650
19,kodiak,57.79,-152.4072,0.73,55,0,2.57,US,1674351651
20,chirongui,-12.9319,45.1483,24.96,79,100,8.82,YT,1674351829
21,jieshi,22.8134,115.8257,16.66,82,100,3.33,CN,1674351829
22,mahebourg,-20.4081,57.7,24.16,88,40,1.54,MU,1674351672
23,sunnyside,46.3237,-120.0087,1.49,86,40,3.09,US,1674351657
24,mataura,-46.1927,168.8643,18.26,51,94,3.92,NZ,1674351612
25,albany,42.6001,-73.9662,-0.2,79,99,0.45,US,1674351501
26,kapaa,22.0752,-159.319,27.18,74,40,4.12,US,1674351693
27,rolla,37.9514,-91.7713,4.28,68,100,2.68,US,1674351832
28,santa rosa,14.3122,121.1114,28.38,75,99,6.35,PH,1674351629
29,rio gallegos,-51.6226,-69.2181,15.03,36,75,9.77,AR,1674351528
30,vaini,-21.2,-175.2,30.09,79,20,4.63,TO,1674351610
31,longyearbyen,78.2186,15.6401,-2.09,74,75,13.89,SJ,1674351690
32,avarua,-21.2078,-159.775,28.03,74,75,2.06,CK,1674351715
33,hovd,48.0056,91.6419,-21.02,87,100,2.02,MN,1674351836
34,arvi,20.9833,78.2333,19.09,61,5,0.42,IN,1674351836
35,fayaoue,-20.65,166.5333,26.44,90,100,11.31,NC,1674351837
36,hami,42.8,93.45,-11.32,50,1,3.83,CN,1674351838
37,arraial do cabo,-22.9661,-42.0278,22.82,89,10,3.25,BR,1674351721
38,vicuna,-30.0319,-70.7081,13.85,62,0,0.45,CL,1674351838
39,husavik,66.0449,-17.3389,0.3,76,100,7.27,IS,1674351757
40,port elizabeth,-33.918,25.5701,23.94,89,0,8.23,ZA,1674351601
41,khash,28.2211,61.2158,-0.28,51,0,2.15,IR,1674351840
42,kulob,37.9145,69.783,-2.58,93,75,1.0,TJ,1674351840
43,yellowknife,62.456,-114.3525,-9.69,85,100,4.12,CA,1674351428
44,hermanus,-34.4187,19.2345,16.56,81,82,2.18,ZA,1674351617
45,tiksi,71.6872,128.8694,-28.1,89,100,2.13,RU,1674351597
46,rikitea,-23.1203,-134.9692,25.73,78,100,7.87,PF,1674351620
47,saint anthony,45.0205,-93.218,-4.03,91,100,3.09,US,1674351843
48,busselton,-33.65,115.3333,30.12,32,0,4.54,AU,1674351751
49,mpika,-11.8343,31.4529,15.66,98,100,2.22,ZM,1674351844
50,yagodnoye,62.55,149.6667,-26.04,96,100,2.54,RU,1674351844
51,barrow,71.2906,-156.7887,-18.99,78,100,1.54,US,1674351683
52,westport,41.1415,-73.3579,3.64,68,100,2.06,US,1674351667
53,la ronge,55.1001,-105.2842,-6.86,93,40,1.54,CA,1674351602
54,torbay,47.6666,-52.7314,0.42,99,100,12.35,CA,1674351608
55,saldanha,-33.0117,17.9442,17.84,93,26,2.37,ZA,1674351846
56,thompson,55.7435,-97.8558,-10.91,92,100,3.09,CA,1674351636
57,bow island,49.8668,-111.3684,3.1,80,7,3.6,CA,1674351848
58,pacific grove,36.6177,-121.9166,12.82,65,0,2.24,US,1674351645
59,dingle,10.9995,122.6711,26.84,80,54,6.07,PH,1674351849
60,rincon,32.296,-81.2354,11.03,67,75,3.6,US,1674351638
61,jamestown,42.097,-79.2353,-0.23,65,100,4.63,US,1674351661
62,port alfred,-33.5906,26.891,21.21,97,99,4.47,ZA,1674351596
63,khani,41.9563,42.9566,4.76,59,100,2.65,GE,1674351850
64,ardino,41.5833,25.1333,7.84,95,100,2.56,BG,1674351851
65,mount gambier,-37.8333,140.7667,22.21,49,2,5.33,AU,1674351671
66,ponta do sol,32.6667,-17.1,18.17,79,50,3.21,PT,1674351778
67,punta arenas,-53.15,-70.9167,10.06,53,0,7.2,CL,1674351606
68,amuntai,-2.4177,115.2494,25.2,90,96,0.31,ID,1674351853
69,kruisfontein,-34.0033,24.7314,22.71,92,90,6.53,ZA,1674351659
70,upernavik,72.7868,-56.1549,-31.01,94,86,2.59,GL,1674351599
71,sterling,39.0062,-77.4286,3.99,73,20,0.0,US,1674351854
72,burnie,-41.0667,145.9167,22.75,52,9,3.25,AU,1674351855
73,bambous virieux,-20.3428,57.7575,24.14,88,40,1.54,MU,1674351669
74,kavaratti,10.5669,72.642,26.75,68,52,5.56,IN,1674351856
75,chama,47.1821,8.4636,-0.9,87,100,1.54,CH,1674351856
76,syracuse,37.0881,15.2792,5.18,63,67,5.35,IT,1674351562
77,hasaki,35.7333,140.8333,5.12,65,100,3.05,JP,1674351447
78,miandoab,36.9694,46.1027,-2.18,76,2,1.51,IR,1674351858
79,nantucket,41.2835,-70.0995,1.19,73,100,4.12,US,1674351701
80,chokurdakh,70.6333,147.9167,-39.77,100,99,3.09,RU,1674351713
81,nouadhibou,20.931,-17.0347,16.99,63,6,8.75,MR,1674351802
82,faya,18.3851,42.4509,10.06,88,9,0.75,SA,1674351614
83,ushuaia,-54.8,-68.3,8.81,61,40,9.77,AR,1674351709
84,santiago del estero,-27.7951,-64.2615,27.57,60,31,3.61,AR,1674351860
85,gornyy,55.1153,83.9059,-36.38,95,13,2.13,RU,1674351861
86,ancud,-41.8697,-73.8203,15.22,96,99,2.13,CL,1674351694
87,lebu,-37.6167,-73.65,15.15,84,1,5.49,CL,1674351684
88,tutoia,-2.7619,-42.2744,25.79,83,7,4.88,BR,1674351862
89,qaanaaq,77.484,-69.3632,-34.91,61,39,3.08,GL,1674351684
90,leningradskiy,69.3833,178.4167,-39.13,93,17,2.11,RU,1674351855
91,hadejia,12.4498,10.0444,20.36,16,98,3.65,NG,1674351863
92,san quintin,30.4833,-115.95,13.43,58,0,2.81,MX,1674351864
93,chuncheng,22.1731,111.7886,18.34,85,100,0.98,CN,1674351865
94,svecha,58.2785,47.5164,-8.73,94,100,2.48,RU,1674351865
95,antofagasta,-23.65,-70.4,19.6,82,12,1.89,CL,1674351745
96,vouliagmeni,37.8167,23.7833,14.09,80,75,1.03,GR,1674351866
97,manvi,15.9833,77.05,18.9,71,7,1.98,IN,1674351867
98,tafresh,34.692,50.013,-2.87,79,5,1.5,IR,1674351868
99,san patricio,28.017,-97.5169,17.05,85,6,2.77,US,1674351350
100,sao filipe,14.8961,-24.4956,21.46,66,15,6.09,CV,1674351687
101,hornepayne,49.2138,-84.7705,-4.33,92,100,3.54,CA,1674351869
102,katobu,-4.9408,122.5276,29.44,67,99,1.74,ID,1674351870
103,goderich,43.7501,-81.7165,1.06,80,100,6.17,CA,1674351635
104,carnarvon,-24.8667,113.6333,24.5,76,83,6.82,AU,1674351592
105,bela vista,-22.1089,-56.5211,26.37,68,26,2.89,BR,1674351871
106,pravda,46.9396,142.009,-12.31,80,100,7.9,RU,1674351871
107,tezu,27.9167,96.1667,17.59,37,39,0.48,IN,1674351872
108,urucara,-2.5364,-57.76,22.58,98,99,0.56,BR,1674351873
109,touros,-5.1989,-35.4608,26.48,79,1,5.22,BR,1674351873
110,sisimiut,66.9395,-53.6735,-19.12,92,100,10.91,GL,1674351874
111,assiniboia,49.6334,-105.9845,-1.1,93,12,2.57,CA,1674351874
112,butaritari,3.0707,172.7902,27.49,72,100,6.79,KI,1674351677
113,yamada,39.4667,141.95,1.44,38,8,0.87,JP,1674351875
114,port blair,11.6667,92.75,26.02,78,75,2.57,IN,1674351634
115,ghoti,19.7168,73.6245,14.76,50,1,1.34,IN,1674351876
116,karratha,-20.7377,116.8463,30.29,53,49,1.82,AU,1674351791
117,saint-philippe,-21.3585,55.7679,24.77,84,91,3.49,RE,1674351709
118,cidreira,-30.1811,-50.2056,22.42,92,32,2.19,BR,1674351697
119,kasongo-lunda,-6.4667,16.8167,20.61,95,100,0.43,CD,1674351878
120,new norfolk,-42.7826,147.0587,18.84,64,88,0.45,AU,1674351656
121,verkhnyaya toyma,62.2349,44.9985,-15.61,100,88,1.42,RU,1674351879
122,bengkulu,-3.8004,102.2655,26.93,73,91,1.13,ID,1674351807
123,kieta,-6.2167,155.6333,29.49,65,100,1.5,PG,1674351879
124,sansare,14.7472,-90.1125,23.48,66,1,1.91,GT,1674351880
125,tuktoyaktuk,69.4541,-133.0374,-27.47,100,100,1.5,CA,1674351776
126,kathu,7.9178,98.3332,27.9,75,72,3.1,TH,1674351881
127,valparaiso,-33.0393,-71.6273,19.15,100,0,2.57,CL,1674351489
128,clovis,36.8252,-119.7029,11.0,70,0,1.68,US,1674351662
129,sawtell,-30.3833,153.1,24.55,69,100,3.6,AU,1674351882
130,nesna,66.1967,13.0213,6.48,77,100,6.49,NO,1674351883
131,karasjok,69.4719,25.5112,-5.34,85,100,5.17,NO,1674351657
132,tyumentsevo,53.3224,81.498,-33.6,99,16,2.13,RU,1674351883
133,kavieng,-2.5744,150.7967,28.59,73,100,0.83,PG,1674351885
134,hilo,19.7297,-155.09,27.93,57,0,7.72,US,1674351660
135,geraldton,-28.7667,114.6,24.23,73,100,3.6,AU,1674351805
136,hauterive,46.0901,3.4459,-0.58,97,88,3.26,FR,1674351886
137,burns lake,54.2331,-125.7533,-3.32,84,54,2.49,CA,1674351605
138,grindavik,63.8424,-22.4338,1.97,100,100,11.32,IS,1674351865
139,astana,51.1801,71.446,-22.03,84,0,2.0,KZ,1674351887
140,richards bay,-28.783,32.0377,21.63,94,1,3.96,ZA,1674351888
141,buala,-8.145,159.5921,30.52,63,79,2.27,SB,1674351888
142,ixtapa,20.7,-105.2,23.57,73,100,3.6,MX,1674351889
143,konevo,62.1215,39.3192,-11.15,98,100,0.71,RU,1674351890
144,muros,42.7762,-9.0603,7.27,81,68,4.88,ES,1674351890
145,kargasok,59.0556,80.8572,-20.88,96,100,7.51,RU,1674351891
146,castro,-24.7911,-50.0119,18.51,86,65,1.16,BR,1674351721
147,coquimbo,-29.9533,-71.3436,17.85,88,75,3.09,CL,1674351892
148,east london,-33.0153,27.9116,24.43,92,100,5.23,ZA,1674351610
149,te anau,-45.4167,167.7167,17.23,51,72,2.75,NZ,1674351893
150,cabo san lucas,22.8909,-109.9124,18.92,62,0,1.11,MX,1674351754
151,bredasdorp,-34.5322,20.0403,18.81,81,32,2.48,ZA,1674351619
152,leua,48.2156,18.6071,3.05,83,100,1.94,SK,1674351894
153,san rafael,-34.6177,-68.3301,25.83,27,1,3.87,AR,1674351616
154,yangambi,0.8102,24.4336,20.79,89,100,1.76,CD,1674351895
155,acari,-15.4311,-74.6158,22.51,82,79,1.19,PE,1674351896
156,klerksdorp,-26.8521,26.6667,17.87,35,59,4.13,ZA,1674351896
157,marsa matruh,31.3525,27.2453,9.11,87,0,0.0,EG,1674351796
158,hof,50.3167,11.9167,-0.96,93,100,4.63,DE,1674351897
159,atambua,-9.1061,124.8925,27.7,67,94,0.93,ID,1674351898
160,manavalakurichi,8.1333,77.3,23.16,77,100,2.67,IN,1674351898
161,preston,53.7667,-2.7167,1.29,90,100,3.61,GB,1674351899
162,pantao,13.1944,123.3271,27.04,75,89,2.66,PH,1674351899
163,xinmin,41.9908,122.8253,-10.74,49,100,5.4,CN,1674351900
164,lakes entrance,-37.8811,147.981,26.2,77,100,3.29,AU,1674351901
165,lompoc,34.6391,-120.4579,13.34,74,0,5.66,US,1674351609
166,avera,33.194,-82.5271,7.73,55,100,2.93,US,1674351901
167,kaitangata,-46.2817,169.8464,18.22,48,95,3.54,NZ,1674351672
168,ishigaki,24.3448,124.1572,23.07,73,75,6.69,JP,1674351905
169,newport,51.5877,-2.9984,1.06,95,100,1.84,GB,1674351905
170,port hawkesbury,45.6169,-61.3485,-2.12,87,100,8.49,CA,1674351906
171,diamantino,-14.4086,-56.4461,22.6,92,100,1.73,BR,1674351906
172,luwingu,-10.2621,29.9271,16.14,99,100,2.0,ZM,1674351907
173,codrington,-38.2667,141.9667,20.3,59,7,6.95,AU,1674351648
174,collie,-33.3667,116.15,34.09,18,0,3.57,AU,1674351908
175,ostrovnoy,68.0531,39.5131,-7.73,92,100,5.11,RU,1674351720
176,port hardy,50.6996,-127.4199,4.1,87,75,2.57,CA,1674351680
177,iralaya,15.0,-83.2333,24.23,83,12,4.53,HN,1674351909
178,asau,46.4333,26.4,2.51,91,100,0.94,RO,1674351692
179,catuday,16.2923,119.8062,26.98,64,58,4.33,PH,1674351911
180,verkhnyaya inta,65.9811,60.3094,-7.98,93,100,7.93,RU,1674351911
181,porto nacional,-10.7081,-48.4172,26.0,93,100,0.82,BR,1674351912
182,luderitz,-26.6481,15.1594,17.98,76,5,7.28,NA,1674351662
183,bima,-8.4667,118.7167,28.93,70,98,0.94,ID,1674351913
184,chaoyang,41.5703,120.4586,-9.71,38,84,3.49,CN,1674351913
185,galle,6.0367,80.217,23.97,84,100,2.23,LK,1674351914
186,denpasar,-8.65,115.2167,28.81,88,40,1.03,ID,1674351685
187,rantepao,-2.9701,119.8978,25.22,70,100,0.76,ID,1674351915
188,arroyo,41.6096,-4.7969,1.44,81,0,3.6,ES,1674351916
189,shchors,51.8186,31.945,-0.49,93,32,3.49,UA,1674351917
190,kannangad,12.3081,75.1063,21.34,76,73,2.24,IN,1674351918
191,necochea,-38.5473,-58.7368,18.85,84,0,5.2,AR,1674351901
192,vagur,61.4732,-6.8119,8.2,97,100,12.71,FO,1674351918
193,brigantine,39.4101,-74.3646,4.44,64,100,2.06,US,1674351919
194,gizo,-8.103,156.8419,29.25,65,85,2.02,SB,1674351920
195,kailua,21.4022,-157.7394,28.41,65,8,1.79,US,1674351921
196,bandarbeyla,9.4942,50.8122,23.52,70,27,8.61,SO,1674351653
197,novopokrovka,49.8425,36.5477,-1.66,82,100,3.49,UA,1674351922
198,tinos,37.5375,25.1634,14.96,68,100,8.37,GR,1674351922
199,namibe,-15.1961,12.1522,22.45,71,100,2.04,AO,1674351646
200,oranjemund,-28.55,16.4333,16.88,93,20,3.49,NA,1674351923
201,makakilo city,21.3469,-158.0858,27.6,61,20,5.66,US,1674351643
202,san policarpo,12.1791,125.5072,27.3,80,86,7.61,PH,1674351924
203,hithadhoo,-0.6,73.0833,26.91,74,55,4.45,MV,1674351925
204,senneterre,48.3835,-77.2328,-6.18,92,100,3.61,CA,1674351926
205,bambanglipuro,-7.95,110.2833,27.73,75,26,2.61,ID,1674351926
206,ryotsu,38.0833,138.4333,2.69,80,98,1.36,JP,1674351927
207,padang,-0.9492,100.3543,25.03,78,99,0.84,ID,1674351928
208,landsberg,52.7368,15.2288,0.78,100,100,4.11,PL,1674351667
209,barghat,22.0333,79.7167,17.5,63,80,0.52,IN,1674351929
210,palmares,-8.6833,-35.5917,22.99,88,3,1.11,BR,1674351930
211,merauke,-8.4667,140.3333,29.38,71,75,4.86,ID,1674351931
212,safaga,26.7292,33.9365,17.81,40,0,5.47,EG,1674351932
213,tessalit,20.1986,1.0114,18.4,16,0,3.52,ML,1674351933
214,khatanga,71.9667,102.5,-38.41,88,38,1.36,RU,1674351625
215,nikolskoye,59.7035,30.7861,-2.89,98,81,2.17,RU,1674351598
216,zwedru,6.0667,-8.1281,22.57,94,75,1.4,LR,1674351934
217,semporna,4.4818,118.6112,26.63,82,99,1.94,MY,1674351935
218,sinnamary,5.3833,-52.95,24.28,90,76,4.02,GF,1674351935
219,ribeira grande,38.5167,-28.7,16.54,86,4,6.26,PT,1674351792
220,salalah,17.0151,54.0924,20.05,52,0,4.12,OM,1674351760
221,la union,-5.4,-80.75,23.9,63,12,5.59,PE,1674351937
222,pisco,-13.7,-76.2167,22.03,83,0,7.72,PE,1674351647
223,axim,4.8699,-2.2405,26.29,85,12,3.05,GH,1674351703
224,meadow lake,34.8014,-106.5436,0.82,49,3,5.89,US,1674351938
225,ceyhan,37.0247,35.8175,9.19,64,1,2.1,TR,1674351938
226,severo-kurilsk,50.6789,156.125,-5.04,70,100,4.21,RU,1674351939
227,miandrivazo,-19.5167,45.4667,24.23,84,100,3.48,MG,1674351940
228,winnemucca,40.973,-117.7357,-2.12,74,89,3.25,US,1674351940
229,atar,20.5169,-13.0499,18.17,23,0,4.51,MR,1674351941
230,lasa,46.6166,10.7002,-1.51,89,100,2.78,IT,1674351615
231,korostyshiv,50.3172,29.0563,1.43,91,8,2.33,UA,1674351942
232,vuktyl,63.8567,57.3094,-10.16,97,62,2.96,RU,1674351943
233,haines junction,60.7522,-137.5108,-6.61,98,98,0.83,CA,1674351943
234,teguldet,57.3064,88.1667,-41.24,100,58,1.51,RU,1674351944
235,yumen,40.2833,97.2,-11.67,83,100,8.81,CN,1674351687
236,zelenoborskiy,66.845,32.3622,-11.26,96,100,1.57,RU,1674351945
237,itarema,-2.9248,-39.9167,24.86,86,28,3.82,BR,1674351946
238,vila,42.0304,-8.1588,2.06,90,21,2.05,PT,1674351946
239,pevek,69.7008,170.3133,-38.1,100,100,2.28,RU,1674351752
240,narsaq,60.9167,-46.05,-14.88,67,14,4.59,GL,1674351613
241,paita,-5.0892,-81.1144,21.49,81,10,4.3,PE,1674351947
242,uyskoye,54.3775,60.0047,-14.34,83,93,1.63,RU,1674351948
243,ipojuca,-8.3989,-35.0639,26.95,81,0,2.79,BR,1674351949
244,botwood,49.1499,-55.3482,-2.83,86,100,6.8,CA,1674351949
245,norman wells,65.282,-126.8329,-18.98,78,100,7.2,CA,1674351950
246,naze,28.3667,129.4833,17.51,67,100,6.52,JP,1674351950
247,bria,6.5423,21.9863,20.53,27,9,2.14,CF,1674351951
248,chirilagua,13.2203,-88.1386,21.89,71,6,1.38,SV,1674351922
249,dzhalil,55.0239,52.7358,-11.93,85,100,3.57,RU,1674351952
250,byron bay,-28.65,153.6167,26.77,66,77,2.35,AU,1674351754
251,okhotsk,59.3833,143.3,-22.5,75,100,6.53,RU,1674351782
252,yeniseysk,58.4497,92.1703,-46.94,100,64,1.17,RU,1674351954
253,pervomayskoye,43.919,46.7102,4.64,68,5,12.29,RU,1674351954
254,hurghada,27.2574,33.8129,14.02,51,0,4.63,EG,1674351955
255,portland,45.5234,-122.6762,7.32,88,82,3.13,US,1674351754
256,ilhabela,-23.7781,-45.3581,23.66,88,77,2.42,BR,1674351956
257,pochutla,15.7432,-96.4661,22.11,72,34,1.88,MX,1674351956
258,riyadh,24.6877,46.7219,12.08,52,81,3.53,SA,1674351913
259,krasni okny,47.5404,29.46,4.76,91,80,3.05,UA,1674351957
260,chingirlau,51.095,54.0814,-15.98,82,9,2.75,KZ,1674351958
261,naliya,23.2667,68.8333,14.33,53,0,4.44,IN,1674351959
262,lagoa,39.05,-27.9833,15.08,82,6,9.49,PT,1674351646
263,de-kastri,51.4667,140.7833,-22.38,93,100,9.33,RU,1674351959
264,gobabis,-22.45,18.9667,21.58,68,100,4.75,NA,1674351960
265,nalut,30.3333,10.85,7.08,55,0,2.26,LY,1674351961
266,yarim,14.298,44.3779,8.37,48,0,0.93,YE,1674351961
267,katherine,-14.4667,132.2667,33.18,49,25,3.6,AU,1674351796
268,ahuimanu,21.4447,-157.8378,28.25,64,75,4.63,US,1674351786
269,sept-iles,50.2001,-66.3821,-9.0,76,0,2.06,CA,1674351963
270,zonguldak,41.25,31.8333,5.93,63,6,2.46,TR,1674351963
271,buraydah,26.326,43.975,13.25,53,25,2.84,SA,1674351659
272,general roca,-39.0333,-67.5833,26.46,23,39,5.95,AR,1674351964
273,vidisha,23.5333,77.8167,14.64,72,5,0.88,IN,1674351965
274,beyla,8.6833,-8.6333,22.01,26,2,0.38,GN,1674351965
275,ostersund,63.1792,14.6357,-11.75,92,75,0.51,SE,1674351966
276,awjilah,29.1081,21.2869,11.17,53,9,3.62,LY,1674351966
277,auki,-8.7676,160.7034,30.26,65,93,2.08,SB,1674351967
278,cockburn town,21.4612,-71.1419,23.98,78,40,4.12,TC,1674351639
279,korla,41.7597,86.1469,-13.26,75,3,4.27,CN,1674351968
280,uige,-7.6087,15.0613,19.1,99,100,0.16,AO,1674351969
281,meulaboh,4.1363,96.1285,24.92,82,100,1.29,ID,1674351970
282,saint george,37.1041,-113.5841,5.53,44,0,2.57,US,1674351619
283,the valley,18.217,-63.0578,25.05,72,0,6.75,AI,1674351970
284,lavrentiya,65.5833,-171.0,-30.97,91,6,1.51,RU,1674351971
285,urusha,54.05,122.9,-37.72,85,88,1.11,RU,1674351972
286,bud,39.447,-86.1758,1.01,84,57,2.55,US,1674351972
287,bahir dar,11.5936,37.3908,16.3,44,36,1.44,ET,1674351973
288,sur,22.5667,59.5289,18.45,64,32,2.84,OM,1674351973
289,sladkovo,55.5284,70.3385,-8.23,87,100,4.25,RU,1674351974
290,berlevag,70.8578,29.0864,0.0,69,100,16.46,NO,1674351788
291,ballina,-28.8667,153.5667,26.55,80,81,1.89,AU,1674351975
292,clyde river,70.4692,-68.5914,-31.87,68,100,7.2,CA,1674351975
293,ahipara,-35.1667,173.1667,23.35,64,1,3.54,NZ,1674351700
294,sitka,57.0531,-135.33,5.94,70,100,5.66,US,1674351777
295,powell,40.1578,-83.0752,0.93,78,100,3.6,US,1674351977
296,tuatapere,-46.1333,167.6833,14.57,78,89,4.41,NZ,1674351614
297,upington,-28.4478,21.2561,23.21,60,0,1.54,ZA,1674351978
298,shitanjing,39.2342,106.3439,-7.71,38,28,7.71,CN,1674351978
299,along,28.1667,94.7667,13.52,59,71,0.51,IN,1674351669
300,nishihara,26.1842,127.7558,22.6,69,75,9.26,JP,1674351979
301,fairbanks,64.8378,-147.7164,-15.22,78,75,5.14,US,1674351505
302,sao cristovao,-11.0147,-37.2064,26.95,78,20,3.6,BR,1674351794
303,dauphin,51.1494,-100.0502,-8.92,86,0,7.2,CA,1674351751
304,ilulissat,69.2167,-51.1,-25.99,58,20,10.29,GL,1674351674
305,barzas,55.7167,86.3167,-39.07,100,37,1.71,RU,1674351981
306,campbell river,50.0163,-125.2446,3.74,100,75,1.03,CA,1674351709
307,masuda,34.6667,131.85,4.15,65,75,3.6,JP,1674351982
308,mildura,-34.2,142.15,27.26,51,1,2.78,AU,1674351983
309,beringovskiy,63.05,179.3167,-20.6,98,100,5.28,RU,1674351799
310,dongsheng,39.8161,109.9776,-9.63,55,73,5.16,CN,1674351984
311,quelimane,-17.8786,36.8883,22.75,98,100,1.71,MZ,1674351984
312,bubaque,11.2833,-15.8333,23.92,69,41,9.05,GW,1674351985
313,moose factory,51.2585,-80.6094,-8.0,86,100,4.12,CA,1674351986
314,broome,42.2506,-75.833,0.39,84,100,1.54,US,1674351680
315,isangel,-19.55,169.2667,32.06,70,75,3.09,VU,1674351718
316,matagami,49.7502,-77.6328,-7.94,93,100,3.6,CA,1674351987
317,fortuna,40.5982,-124.1573,11.19,88,100,0.0,US,1674351724
318,fort nelson,58.8053,-122.7002,-2.81,99,75,0.0,CA,1674351928
319,belaya gora,68.5333,146.4167,-42.57,100,68,1.22,RU,1674351989
320,devarkonda,16.7,78.9333,19.16,87,44,1.25,IN,1674351990
321,vangaindrano,-23.35,47.6,23.49,94,100,2.15,MG,1674351948
322,vinzili,56.9594,65.7708,-1.83,80,95,4.2,RU,1674351991
323,bac lieu,9.285,105.7244,27.2,71,100,5.36,VN,1674351992
324,alekseyevka,50.6309,38.6903,-3.54,85,100,4.46,RU,1674351992
325,bose,45.4612,8.0137,2.38,38,100,0.79,IT,1674351993
326,bethel,41.3712,-73.414,2.19,71,100,1.54,US,1674351617
327,puerto quijarro,-17.7833,-57.7667,24.86,77,4,0.76,BO,1674351994
328,banff,51.1762,-115.5698,1.57,74,67,3.6,CA,1674351995
329,fukue,32.6881,128.8419,9.2,71,100,2.06,JP,1674351995
330,dicabisagan,17.0818,122.4157,24.69,83,96,2.94,PH,1674351996
331,jodhpur,26.2867,73.03,10.89,66,0,4.02,IN,1674351997
332,bathsheba,13.2167,-59.5167,25.34,73,20,8.75,BB,1674351688
333,cayenne,4.9333,-52.3333,24.02,94,100,2.57,GF,1674351371
334,klaksvik,62.2266,-6.589,8.51,93,100,10.42,FO,1674351998
335,taybad,34.74,60.7756,-3.37,57,0,2.7,IR,1674351999
336,nizhnyaya salda,58.0776,60.7202,-7.39,79,100,5.28,RU,1674352000
337,salamanca,40.8333,-6.0,-0.12,84,10,5.0,ES,1674351754
338,balloszog,46.8622,19.5709,2.62,93,100,4.12,HU,1674352001
339,anadyr,64.75,177.4833,-29.72,74,0,5.0,RU,1674352001
340,ucluelet,48.9329,-125.5528,4.49,92,98,4.38,CA,1674351931
341,shambu,9.5667,37.1,10.5,45,100,0.59,ET,1674352002
342,agadir,30.4202,-9.5982,8.25,63,0,1.1,MA,1674352003
343,dunedin,-45.8742,170.5036,16.2,61,100,2.12,NZ,1674351513
344,marabba,12.35,32.1833,21.45,19,5,6.21,SD,1674352004
345,lagunas,-5.2269,-75.6753,22.76,92,86,1.26,PE,1674352005
346,cachira,7.741,-73.0483,10.9,93,90,2.36,CO,1674352006
347,canico,32.6333,-16.85,18.17,87,40,8.23,PT,1674352006
348,faanui,-16.4833,-151.75,27.21,64,99,2.16,PF,1674351722
349,kaeo,-35.1,173.7833,22.29,76,46,2.29,NZ,1674352007
350,athabasca,54.7169,-113.2854,1.23,88,100,1.53,CA,1674352008
351,nianzishan,47.5167,122.8833,-26.84,85,64,2.12,CN,1674352009
352,saint-pierre,-21.3393,55.4781,24.82,78,0,1.54,RE,1674351621
353,half moon bay,37.4636,-122.4286,12.42,58,0,3.09,US,1674352010
354,pachino,36.7186,15.0907,12.89,52,55,8.8,IT,1674352011
355,sorland,67.667,12.6934,5.92,93,100,19.49,NO,1674351814
356,airai,-8.9266,125.4092,22.14,65,97,1.06,TL,1674351606
357,aketi,2.7388,23.7833,20.26,63,100,0.96,CD,1674352012
358,kasongo,-4.45,26.6667,19.03,96,100,0.92,CD,1674352013
359,vytegra,61.0064,36.4481,-12.42,100,100,1.64,RU,1674352014
360,oshakati,-17.7833,15.6833,21.09,77,100,4.36,NA,1674352015
361,bonavista,48.6499,-53.1147,-0.54,94,100,15.06,CA,1674351762
362,hoquiam,46.9809,-123.8893,7.99,91,100,10.8,US,1674351823
363,buxtehude,53.45,9.7,1.21,82,100,6.69,DE,1674352016
364,shenjiamen,29.9576,122.298,10.48,95,100,5.32,CN,1674352017
365,bilibino,68.0546,166.4372,-41.87,96,24,1.45,RU,1674351682
366,itoman,26.1247,127.6694,23.01,67,40,9.26,JP,1674352018
367,ternate,0.8,127.4,27.34,76,100,2.53,ID,1674352019
368,karwar,14.8,74.1333,20.66,64,24,2.17,IN,1674352019
369,grand gaube,-20.0064,57.6608,24.22,86,100,0.89,MU,1674351621
370,alice springs,-23.7,133.8833,31.23,40,10,6.17,AU,1674351715
371,ludvika,60.1496,15.1878,-12.59,97,33,1.09,SE,1674352021
372,horadiz,39.4488,47.3353,5.3,82,98,1.01,AZ,1674352022
373,crotone,39.0851,17.1178,7.33,61,5,6.41,IT,1674352023
374,lengshuitan,26.4111,111.5956,8.75,67,100,3.27,CN,1674352024
375,muret,43.3333,1.25,1.45,87,15,0.89,FR,1674352025
376,vardo,70.3705,31.1107,-1.22,73,100,12.9,NO,1674351955
377,mar del plata,-38.0023,-57.5575,21.01,79,0,4.63,AR,1674351398
378,hopatcong,40.9329,-74.6593,1.52,72,50,0.89,US,1674352029
379,pangnirtung,66.1451,-65.7125,-16.77,98,100,1.22,CA,1674351921
380,souillac,-20.5167,57.5167,24.21,88,40,1.54,MU,1674351668
381,hambantota,6.1241,81.1185,23.19,100,75,3.6,LK,1674352030
382,sechura,-5.5569,-80.8222,22.75,71,28,5.53,PE,1674352031
383,holland,42.7875,-86.1089,1.12,84,100,3.6,US,1674351810
384,russell,32.3502,-85.1999,7.88,87,100,1.54,US,1674351649
385,kilindoni,-7.9139,39.6668,26.29,84,100,5.53,TZ,1674352033
386,nuuk,64.1835,-51.7216,-7.51,77,100,13.33,GL,1674352033
387,college,64.8569,-147.8028,-15.23,78,100,5.14,US,1674352034
388,nueva guinea,11.6876,-84.4562,20.36,95,6,2.5,NI,1674352035
389,yatou,37.15,122.3833,4.56,77,100,2.99,CN,1674352035
390,yingcheng,30.95,113.55,7.77,65,18,3.59,CN,1674352036
391,karymskoye,51.6167,114.35,-31.0,84,24,1.58,RU,1674352037
392,stornoway,58.2093,-6.3865,8.98,94,100,13.89,GB,1674352037
393,wynyard,-41.0,145.7167,22.77,52,10,3.58,AU,1674352038
394,yulara,-25.2406,130.9889,32.72,20,0,4.52,AU,1674352039
395,ha giang,22.8333,104.9833,17.25,68,2,0.37,VN,1674352039
396,port moresby,-9.4431,147.1797,30.68,62,20,3.09,PG,1674352040
397,hualmay,-11.0964,-77.6139,21.67,79,99,3.47,PE,1674351654
398,albanel,48.8832,-72.4487,-10.92,77,97,0.51,CA,1674352042
399,karaton,-6.3424,106.1045,27.38,72,99,1.81,ID,1674352042
400,etah,27.6333,78.6667,10.58,64,0,1.51,IN,1674352043
401,shinyanga,-3.6667,33.4333,19.5,85,100,2.25,TZ,1674352044
402,puerto narino,-3.7703,-70.3831,22.4,97,100,1.0,CO,1674352044
403,masyaf,35.0653,36.3406,6.98,82,0,2.84,SY,1674352045
404,saskylakh,71.9167,114.0833,-37.01,92,99,1.43,RU,1674351604
405,hofn,64.2539,-15.2082,4.75,86,100,12.33,IS,1674351600
406,itupiranga,-5.1347,-49.3267,25.18,96,19,1.24,BR,1674351813
407,charyshskoye,51.3978,83.5598,-27.48,86,3,2.34,RU,1674352047
408,baoning,25.3378,110.026,8.92,87,100,2.0,CN,1674352048
409,vila velha,-20.3297,-40.2925,24.97,98,75,3.09,BR,1674351801
410,pucallpa,-8.3791,-74.5539,26.02,83,20,1.54,PE,1674352050
411,bolshoye murashkino,55.7826,44.7754,-10.86,90,100,2.89,RU,1674352050
412,komsomolskiy,40.4272,71.7189,-8.6,79,99,1.03,UZ,1674351689
413,caravelas,-17.7125,-39.2481,23.28,96,100,3.57,BR,1674352051
414,solnechnyy,50.7214,136.6319,-23.59,90,100,0.66,RU,1674352052
415,bintulu,3.1667,113.0333,27.23,88,40,1.54,MY,1674352053
416,havelock,34.8791,-76.9013,8.97,66,100,1.68,US,1674352054
417,nacala,-14.5428,40.6728,23.55,89,100,5.28,MZ,1674352055
418,coahuayana,18.7333,-103.6833,21.37,86,0,0.49,MX,1674352055
419,lorengau,-2.0226,147.2712,28.56,74,100,0.83,PG,1674351638
420,khandyga,62.6667,135.6,-48.78,96,99,0.63,RU,1674352057
421,ketchikan,55.3422,-131.6461,3.99,87,75,2.06,US,1674351440
422,laem sing,12.4816,102.0738,28.87,83,43,2.79,TH,1674352058
423,trelew,-43.249,-65.3051,21.15,78,40,2.06,AR,1674352058
424,weston-super-mare,51.346,-2.9766,2.03,92,100,3.09,GB,1674352059
425,kikwit,-5.041,18.8162,20.31,93,100,0.18,CD,1674352060
426,olafsvik,64.8945,-23.7142,1.05,61,100,16.97,IS,1674351797
427,hervey bay,-25.2986,152.8535,27.79,67,40,2.68,AU,1674352061
428,aripuana,-9.1667,-60.6333,21.95,98,100,0.9,BR,1674352062
429,brae,60.3964,-1.353,6.89,84,100,14.02,GB,1674352063
430,guerrero negro,27.9769,-114.0611,16.09,40,0,3.24,MX,1674351515
431,dargaville,-35.9333,173.8833,22.92,67,18,3.54,NZ,1674352064
432,qaqortoq,60.7167,-46.0333,-19.48,68,7,4.5,GL,1674352065
433,kharp,66.8014,65.8081,-6.49,90,100,3.52,RU,1674352065
434,nouakchott,18.0858,-15.9785,17.86,77,3,4.98,MR,1674352016
435,omboue,-1.5746,9.2618,25.0,88,100,1.25,GA,1674351808
436,vurnary,55.4904,46.9648,-11.12,89,100,2.62,RU,1674352067
437,ust-nera,64.5667,143.2,-34.83,99,100,0.82,RU,1674352067
438,alofi,-19.0595,-169.9187,29.94,70,10,5.14,NU,1674351707
439,pistoia,43.9667,10.8333,1.88,68,100,3.45,IT,1674352069
440,vestmannaeyjar,63.4427,-20.2734,2.95,84,100,13.63,IS,1674352069
441,bardiyah,31.7561,25.0865,13.44,56,0,1.75,LY,1674352070
442,hokitika,-42.7167,170.9667,17.98,56,49,6.2,NZ,1674352071
443,ranong,9.9658,98.6348,22.96,66,95,2.22,TH,1674352071
444,alberton,46.8168,-64.0654,-1.05,83,99,3.26,CA,1674352072
445,ratnagiri,16.9833,73.3,19.96,68,6,2.37,IN,1674352072
446,leh,34.1667,77.5833,-20.57,72,2,1.73,IN,1674352073
447,baykit,61.67,96.37,-43.57,99,63,0.29,RU,1674352074
448,usinsk,65.9939,57.5281,-8.2,96,100,5.83,RU,1674352075
449,colac,-38.3333,143.5833,21.76,44,27,3.22,AU,1674352075
450,san carlos,9.6612,-68.5827,24.83,70,83,1.45,VE,1674352076
451,sobolevo,54.4299,31.8996,-0.7,85,100,2.91,RU,1674352077
452,alegrete,-29.7831,-55.7919,23.49,77,17,2.47,BR,1674352077
453,la asuncion,11.0333,-63.8628,24.3,84,100,6.21,VE,1674352078
454,asfi,32.2994,-9.2372,13.99,85,1,5.11,MA,1674352079
455,moree,-29.4667,149.85,26.14,48,96,4.3,AU,1674352079
456,lahij,13.1667,44.5833,19.27,85,34,2.67,YE,1674352080
457,oga,46.4631,10.347,-8.44,96,100,3.05,IT,1674352081
458,qostanay,53.1667,63.5833,-20.84,84,0,2.0,KZ,1674352081
459,raudeberg,61.9875,5.1352,3.81,68,32,11.83,NO,1674351666
460,galveston,29.3669,-94.9669,12.05,93,100,7.2,US,1674352072
461,odweyne,9.4092,45.064,16.49,52,32,1.64,SO,1674352083
462,arlit,18.7369,7.3853,19.0,13,67,2.77,NE,1674352084
463,kasimov,54.9411,41.3953,-7.29,90,100,3.64,RU,1674352084
464,constitucion,-35.3333,-72.4167,14.13,85,0,5.29,CL,1674352085
465,iqaluit,63.7506,-68.5145,-12.15,92,100,2.06,CA,1674351671
466,maragheh,37.3917,46.2398,-2.52,69,4,3.85,IR,1674352086
467,andenes,69.3143,16.1194,4.4,81,100,13.38,NO,1674352087
468,qui nhon,13.7667,109.2333,23.13,82,98,3.46,VN,1674352088
469,sabha,27.0377,14.4283,11.02,20,100,3.7,LY,1674352088
470,wheeling,42.1392,-87.929,-0.09,86,100,2.57,US,1674351799
471,tura,25.5198,90.2201,16.39,47,0,1.0,IN,1674352090
472,aguimes,27.9054,-15.4461,16.35,77,75,5.81,ES,1674351686
473,sulangan,11.1373,123.7228,26.37,79,97,6.4,PH,1674352091
474,ambilobe,-13.2,49.05,21.8,95,94,0.5,MG,1674351772
475,alghero,40.5589,8.3181,2.05,100,20,2.06,IT,1674352092
476,saint-joseph,-21.3667,55.6167,24.21,82,93,1.76,RE,1674352093
477,siaya,0.0612,34.2882,17.05,64,92,2.71,KE,1674352093
478,darnah,32.767,22.6367,11.55,51,0,7.12,LY,1674352094
479,aasiaat,68.7098,-52.8699,-32.0,91,100,5.56,GL,1674352095
480,kirakira,-10.4544,161.9205,29.92,68,100,2.56,SB,1674351598
481,merano,46.6682,11.1595,-0.36,75,100,3.17,IT,1674352097
482,santa ines,-3.6667,-45.38,22.42,98,81,1.41,BR,1674352098
483,roma,43.2128,-75.4557,-0.03,83,100,0.0,US,1674352098
484,manokwari,-0.8667,134.0833,26.26,82,100,0.96,ID,1674352099
485,srednekolymsk,67.45,153.6833,-40.87,100,100,1.66,RU,1674352099
486,phan thiet,10.9333,108.1,27.91,62,100,2.39,VN,1674351663
487,lima,-12.0432,-77.0282,24.39,73,75,3.6,PE,1674352079
488,alibag,18.6411,72.8792,20.04,56,5,3.95,IN,1674352101
489,barquisimeto,10.0739,-69.3228,19.22,94,10,1.65,VE,1674352102
490,tallahassee,30.4383,-84.2807,10.18,92,100,2.48,US,1674352102
491,mairi,-11.7114,-40.1489,21.93,75,17,2.36,BR,1674352103
492,nanortalik,60.1432,-45.2371,-12.51,63,0,6.22,GL,1674351676
493,menomonie,44.8755,-91.9193,-4.94,100,100,3.6,US,1674351873
494,tomatlan,19.9333,-105.25,19.34,93,0,0.65,MX,1674352105
495,mezhdurechensk,53.6942,88.0603,-37.52,98,27,1.56,RU,1674352106
496,agadez,19.75,10.25,14.51,20,0,1.47,NE,1674351700
497,fomboni,-12.28,43.7425,26.66,84,100,7.19,KM,1674352107
498,pyapon,16.2833,95.6833,22.98,49,76,2.12,MM,1674352108
499,roura,4.7263,-52.3274,23.95,94,100,2.57,GF,1674352108
500,garhi khairo,28.0606,67.9803,9.63,34,0,2.39,PK,1674352109
501,port augusta,-32.5,137.7667,27.79,34,0,5.27,AU,1674352110
502,qasigiannguit,68.8193,-51.1922,-25.86,77,100,3.39,GL,1674351932
503,taoudenni,22.6783,-3.9836,15.37,14,0,4.55,ML,1674352111
504,jingdezhen,29.2947,117.2079,8.58,91,100,1.3,CN,1674352112
505,kulhudhuffushi,6.6221,73.07,26.28,69,28,6.21,MV,1674352112
506,seoul,37.5683,126.9778,-0.24,45,100,3.09,KR,1674351859
507,lerwick,60.1545,-1.1494,7.0,82,100,15.21,GB,1674352113
508,mantua,45.1667,10.7833,3.34,87,99,0.45,IT,1674352114
509,deputatskiy,69.3,139.9,-36.79,95,95,2.89,RU,1674352115
510,brokopondo,4.75,-55.1667,23.41,92,100,3.47,SR,1674352115
511,hermosillo,29.0667,-110.9667,18.54,23,0,0.89,MX,1674352116
512,piranhas,-16.4269,-51.8222,22.42,92,100,0.97,BR,1674352117
513,margate,51.3813,1.3862,4.83,77,16,1.34,GB,1674351967
514,mattru,7.6244,-11.8332,22.27,94,92,1.01,SL,1674352118
515,niquelandia,-14.4739,-48.4597,21.34,92,100,0.45,BR,1674352118
516,abalak,58.1286,68.5944,-6.33,92,98,3.52,RU,1674352119
517,belyy yar,53.6039,91.3903,-33.06,77,40,0.0,RU,1674352120
518,pangody,65.85,74.4859,-14.59,96,100,2.29,RU,1674352120
519,vila franca do campo,37.7167,-25.4333,14.23,73,81,2.68,PT,1674352121
520,puerto escondido,15.85,-97.0667,24.6,71,8,1.74,MX,1674352122
521,linjiang,41.8069,126.9078,-7.96,86,100,0.64,CN,1674352122
522,mabaruma,8.2,-59.7833,21.59,99,100,0.96,GY,1674352123
523,isla vista,34.4133,-119.861,14.88,71,0,0.89,US,1674352124
524,praya,14.9215,-23.5087,21.69,65,28,6.32,CV,1674352124
525,thomasville,35.8826,-80.082,4.12,75,100,1.87,US,1674352125
526,tiznit,29.5833,-9.5,10.59,59,0,1.04,MA,1674351711
527,nokaneng,-19.6667,22.2667,18.75,92,100,1.2,BW,1674352126
528,sao joao da barra,-21.6403,-41.0511,22.68,92,100,4.02,BR,1674352127
529,abomsa,9.9833,39.9833,16.35,52,100,0.33,ET,1674352127
530,kabalo,-6.05,26.9167,19.0,98,100,0.86,CD,1674352128
531,victoria,22.2855,114.1577,19.58,82,98,1.79,HK,1674351838
532,at-bashi,41.1702,75.8106,-19.95,48,41,1.47,KG,1674351851
533,rawson,-43.3002,-65.1023,21.16,78,40,2.06,AR,1674352125
534,lappeenranta,61.0587,28.1887,-4.55,93,100,2.06,FI,1674352130
535,biak,-0.9131,122.8766,27.85,63,100,0.29,ID,1674351944
536,jinhua,29.1078,119.6547,9.61,93,100,0.67,CN,1674352131
537,bogo,11.0517,124.0055,27.12,75,96,5.2,PH,1674352131
538,murdochville,48.9583,-65.5006,-13.51,90,9,1.8,CA,1674352132
539,nhulunbuy,-12.2333,136.7667,26.34,94,75,3.6,AU,1674352133
540,hashimoto,34.3167,135.6167,5.97,42,54,1.86,JP,1674352134
541,tigil,57.8,158.6667,-27.64,91,99,1.03,RU,1674352134
542,talnakh,69.4865,88.3972,-19.33,66,100,6.64,RU,1674352096
543,kamina,-8.7386,24.9906,14.94,97,100,1.68,CD,1674352135
544,laukaa,58.7372,29.8453,-6.32,95,9,3.06,RU,1674352137
545,beaverlodge,55.2166,-119.4361,1.64,88,100,2.92,CA,1674352137
546,mogadishu,2.0371,45.3438,25.24,76,93,7.67,SO,1674352132
547,los llanos de aridane,28.6585,-17.9182,16.18,74,75,4.12,ES,1674352138
548,el dorado,38.7666,-120.5177,4.54,83,64,1.34,US,1674352139
549,reitz,-27.8014,28.4273,14.28,54,8,3.4,ZA,1674352140
550,aleksandrov gay,50.147,48.5704,-7.23,82,21,3.69,RU,1674352142
551,cerqueira cesar,-23.0356,-49.1661,19.78,91,100,0.61,BR,1674352143
552,oxford,51.7522,-1.256,-3.23,86,5,0.0,GB,1674352145
553,malartic,48.1335,-78.1328,-8.94,93,100,3.57,CA,1674351930
554,mayskiy,47.6931,40.1025,-0.33,77,100,6.47,RU,1674352148
555,vilhena,-12.7406,-60.1458,20.25,96,15,1.59,BR,1674352149
556,saint stephen,50.3333,-4.9,5.97,76,99,4.73,GB,1674352150
557,taunggyi,20.7833,97.0333,14.85,35,73,0.12,MM,1674352151
558,garissa,-0.4536,39.6401,25.7,74,100,3.92,KE,1674352152
559,pula,44.8683,13.8481,6.31,52,100,11.32,HR,1674351888
560,sikasso,10.9167,-7.0,23.78,20,0,0.82,ML,1674352153
561,carballo,43.213,-8.691,7.73,89,57,1.19,ES,1674352154
562,ramanuj ganj,23.8,83.7,15.23,62,1,0.79,IN,1674352155
563,marsh harbour,26.5412,-77.0636,23.32,82,100,6.16,BS,1674352156
564,arinos,-15.9169,-46.1056,21.84,90,100,0.58,BR,1674352157
565,zarechnyy,53.2036,45.1923,-8.16,18,100,3.15,RU,1674352158
566,freeport,40.6576,-73.5832,4.18,65,100,3.09,US,1674351986
567,adrar,20.5022,-10.0711,15.44,21,3,5.11,MR,1674351954
568,shelburne,44.0787,-80.2041,-2.56,95,100,3.26,CA,1674352160
569,willmar,45.1219,-95.0433,-7.03,93,100,0.0,US,1674352161
570,valley city,46.9233,-98.0032,-11.71,100,6,5.14,US,1674352162
571,blackwater,-23.5833,148.8833,29.48,49,14,2.71,AU,1674352163
572,camacha,33.0833,-16.3333,14.68,88,40,5.14,PT,1674351890
573,kholodnyy,62.7167,147.95,-26.79,96,100,2.6,RU,1674352168
574,laguna,38.421,-121.4238,11.16,64,0,2.57,US,1674352170
575,yar-sale,66.8333,70.8333,-9.15,96,100,1.99,RU,1674351882
576,flinders,-34.5833,150.8552,20.66,88,100,3.13,AU,1674352110
577,mayo,38.8876,-76.5119,5.08,64,100,1.54,US,1674352172
578,krasnoselkup,65.7,82.4667,-18.37,96,100,10.59,RU,1674352173
579,ozernovskiy,51.5,156.5167,-7.46,63,100,2.17,RU,1674352173
580,nelson bay,-32.7167,152.15,20.56,96,100,2.68,AU,1674352174
