City_ID,City,Lat,Lng,Max Temp,Humidity,Cloudiness,Wind Speed,Country,Date
0,mataura,-46.1927,168.8643,12.29,92,37,2.53,NZ,1674371281
1,port alfred,-33.5906,26.891,23.43,92,100,2.24,ZA,1674371165
2,puerto ayora,-0.7393,-90.3518,23.08,97,48,1.83,EC,1674371098
3,cidreira,-30.1811,-50.2056,22.39,88,100,2.55,BR,1674371002
4,bredasdorp,-34.5322,20.0403,20.05,79,100,2.25,ZA,1674371284
5,ribeira grande,38.5167,-28.7,15.99,80,7,5.81,PT,1674371285
6,upernavik,72.7868,-56.1549,-32.8,70,10,3.58,GL,1674371285
7,nanortalik,60.1432,-45.2371,-10.26,61,1,4.98,GL,1674371133
8,avarua,-21.2078,-159.775,25.03,83,100,0.51,CK,1674371286
9,necochea,-38.5473,-58.7368,18.45,80,0,6.58,AR,1674371287
10,east london,-33.0153,27.9116,23.41,92,100,7.51,ZA,1674371287
11,kavaratti,10.5669,72.642,26.86,70,35,6.14,IN,1674371288
12,luanda,-8.8368,13.2343,25.33,81,100,2.89,AO,1674371289
13,luderitz,-26.6481,15.1594,22.59,54,6,9.53,NA,1674371289
14,zaozerne,45.1582,33.2787,5.88,79,0,7.07,UA,1674371084
15,saint-philippe,-21.3585,55.7679,28.77,80,100,3.69,RE,1674371145
16,voyvozh,62.892,54.9635,-12.41,99,100,2.13,RU,1674371291
17,guerrero negro,27.9769,-114.0611,13.05,41,0,2.64,MX,1674371291
18,nome,64.5011,-165.4064,-30.96,69,0,0.0,US,1674371292
19,hermanus,-34.4187,19.2345,22.67,78,100,1.88,ZA,1674371293
20,debre tabor,11.85,38.0167,16.9,31,53,1.41,ET,1674371293
21,karpogory,64.0019,44.4451,-13.36,98,98,1.63,RU,1674371294
22,tasiilaq,65.6145,-37.6368,-15.91,32,0,18.44,GL,1674371067
23,sala consilina,40.3912,15.5989,1.2,100,100,0.96,IT,1674371295
24,pevek,69.7008,170.3133,-39.64,100,84,2.14,RU,1674371296
25,asau,46.4333,26.4,2.51,96,100,1.4,RO,1674371296
26,busselton,-33.65,115.3333,30.19,43,0,4.09,AU,1674371172
27,cape town,-33.9258,18.4232,23.4,79,70,2.68,ZA,1674371217
28,den helder,52.9599,4.7593,2.99,77,75,5.81,NL,1674371250
29,harlow,51.7766,0.1116,-1.25,94,6,0.51,GB,1674371298
30,humaita,-7.5061,-63.0208,21.77,99,93,0.64,BR,1674371299
31,antofagasta,-23.65,-70.4,17.6,86,62,1.69,CL,1674371299
32,vaini,-21.2,-175.2,27.09,94,20,2.06,TO,1674371300
33,ushuaia,-54.8,-68.3,2.82,93,7,1.68,AR,1674371301
34,ballina,-28.8667,153.5667,25.01,78,22,4.33,AU,1674371301
35,sehithwa,-20.4667,22.7167,25.08,58,45,2.38,BW,1674371302
36,qaanaaq,77.484,-69.3632,-34.94,64,91,2.91,GL,1674371303
37,broken hill,-31.95,141.4333,30.53,23,36,5.68,AU,1674371303
38,saskylakh,71.9167,114.0833,-36.99,90,99,1.42,RU,1674371304
39,kapaa,22.0752,-159.319,22.99,92,100,2.57,US,1674371304
40,dikson,73.5069,80.5464,-17.61,94,100,11.49,RU,1674371082
41,tuktoyaktuk,69.4541,-133.0374,-26.76,99,100,1.81,CA,1674371305
42,atuona,-9.8,-139.0333,25.97,81,27,9.04,PF,1674371306
43,yellowknife,62.456,-114.3525,-9.71,92,100,3.09,CA,1674371307
44,karagay,58.2667,54.9368,-8.23,88,100,3.67,RU,1674371308
45,hobart,-42.8794,147.3294,20.92,64,40,3.6,AU,1674371106
46,rikitea,-23.1203,-134.9692,26.54,76,14,7.58,PF,1674371308
47,birao,10.2849,22.7882,25.19,16,19,4.83,CF,1674371309
48,uyemskiy,64.4743,40.8524,-1.97,86,75,4.0,RU,1674371310
49,punta arenas,-53.15,-70.9167,6.06,75,0,2.06,CL,1674371310
50,severo-kurilsk,50.6789,156.125,-7.2,88,100,6.61,RU,1674371311
51,mao,39.8885,4.2658,6.31,65,40,7.72,ES,1674371054
52,alugan,12.2188,125.4808,26.36,83,100,7.02,PH,1674371312
53,keti bandar,24.1447,67.4497,20.91,27,0,3.53,PK,1674371312
54,kostomuksha,64.571,30.5767,-8.54,96,92,3.91,RU,1674371313
55,paamiut,61.994,-49.6678,-7.44,87,100,8.96,GL,1674371313
56,rolla,37.9514,-91.7713,2.51,78,100,3.09,US,1674371314
57,leningradskiy,69.3833,178.4167,-38.91,91,9,1.7,RU,1674371122
58,shingu,33.7333,135.9833,8.68,44,100,1.43,JP,1674371315
59,oksfjord,70.2396,22.3479,8.1,94,100,5.77,NO,1674371059
60,castro,-24.7911,-50.0119,16.85,92,32,0.87,BR,1674371316
61,baykit,61.67,96.37,-34.62,96,98,0.94,RU,1674371316
62,port elizabeth,-33.918,25.5701,23.51,85,75,8.75,ZA,1674371269
63,nova lima,-19.9856,-43.8467,19.61,99,100,1.28,BR,1674371317
64,saldanha,-33.0117,17.9442,19.39,86,98,4.79,ZA,1674371318
65,codrington,-38.2667,141.9667,18.87,67,13,6.72,AU,1674371318
66,sao gabriel da cachoeira,-0.1303,-67.0892,20.76,99,31,0.65,BR,1674371244
67,olavarria,-36.8927,-60.3225,17.71,76,4,1.73,AR,1674371319
68,tautira,-17.7333,-149.15,25.89,72,100,1.85,PF,1674371113
69,albany,42.6001,-73.9662,-0.86,83,15,1.23,US,1674371254
70,pemba,-12.974,40.5178,24.12,89,100,7.47,MZ,1674371320
71,jabinyanah,35.035,10.9081,7.37,68,90,3.29,TN,1674371321
72,bethel,41.3712,-73.414,1.63,71,100,0.0,US,1674371321
73,abu samrah,35.3029,37.1841,10.73,62,11,1.62,SY,1674371322
74,chuy,-33.6971,-53.4616,20.01,95,2,3.0,UY,1674371322
75,jamestown,42.097,-79.2353,-0.23,86,100,3.09,US,1674371059
76,bluff,-46.6,168.3333,13.45,70,77,4.73,NZ,1674371323
77,oranjemund,-28.55,16.4333,19.75,72,8,6.16,NA,1674371324
78,mugur-aksy,50.35,90.5,-22.25,57,0,2.57,RU,1674371324
79,georgetown,5.4112,100.3354,28.96,74,40,2.57,MY,1674371325
80,pingshan,22.9938,114.7131,23.91,57,46,1.52,CN,1674371325
81,sao filipe,14.8961,-24.4956,21.23,65,19,5.19,CV,1674371080
82,roald,62.5833,6.1333,6.08,42,0,8.23,NO,1674371326
83,ukiah,39.1502,-123.2078,8.39,86,75,0.0,US,1674371327
84,tiksi,71.6872,128.8694,-27.24,84,100,1.99,RU,1674371107
85,bahia blanca,-38.7196,-62.2724,21.68,61,60,3.19,AR,1674371328
86,mandalgovi,45.7625,106.2708,-21.82,70,100,9.28,MN,1674371288
87,carnarvon,-24.8667,113.6333,26.22,70,5,8.11,AU,1674371329
88,saurimo,-9.6608,20.3916,19.7,91,100,2.41,AO,1674371330
89,barrow,71.2906,-156.7887,-17.99,78,100,8.23,US,1674371179
90,talnakh,69.4865,88.3972,-17.07,63,100,6.72,RU,1674371331
91,dinard,48.6314,-2.0614,-0.76,86,1,1.03,FR,1674371331
92,torbay,47.6666,-52.7314,-0.24,96,100,12.35,CA,1674371332
93,hithadhoo,-0.6,73.0833,27.35,75,40,5.34,MV,1674371332
94,inza,53.8533,46.3586,-6.77,85,100,3.6,RU,1674371333
95,fairbanks,64.8378,-147.7164,-21.81,77,40,2.06,US,1674371283
96,kruisfontein,-34.0033,24.7314,22.16,61,43,6.8,ZA,1674371334
97,kaitangata,-46.2817,169.8464,12.91,85,53,4.23,NZ,1674371334
98,pacific grove,36.6177,-121.9166,7.59,76,0,2.06,US,1674371335
99,camacha,33.0833,-16.3333,14.68,72,40,5.14,PT,1674371124
100,salta,-24.7859,-65.4117,22.33,88,75,2.57,AR,1674371329
101,laguna,38.421,-121.4238,7.27,88,0,2.57,US,1674371337
102,ambilobe,-13.2,49.05,27.73,74,99,2.95,MG,1674371337
103,tuatapere,-46.1333,167.6833,12.51,81,91,3.82,NZ,1674371338
104,wattegama,6.7989,81.4808,23.19,90,100,3.25,LK,1674371338
105,cabo san lucas,22.8909,-109.9124,14.78,64,0,1.97,MX,1674371214
106,gat,31.61,34.7642,19.67,100,0,0.64,IL,1674371339
107,kahului,20.8947,-156.47,23.25,76,0,2.06,US,1674371340
108,salalah,17.0151,54.0924,26.05,50,20,1.54,OM,1674371129
109,inhambane,-23.865,35.3833,29.25,59,13,4.21,MZ,1674371341
110,san andres,12.5847,-81.7006,27.01,74,20,4.63,CO,1674371246
111,alexandria,31.2156,29.9553,17.2,61,8,3.97,EG,1674371312
112,isangel,-19.55,169.2667,27.84,81,100,1.85,VU,1674371267
113,khatanga,71.9667,102.5,-37.74,81,58,1.35,RU,1674371343
114,mahebourg,-20.4081,57.7,28.16,74,75,5.66,MU,1674371344
115,adre,13.4667,22.2,22.11,19,8,5.14,TD,1674371344
116,ekibastuz,51.6667,75.3667,-9.73,79,97,4.32,KZ,1674371345
117,flin flon,54.7682,-101.865,-11.81,98,100,2.11,CA,1674371346
118,eureka,40.8021,-124.1637,9.4,92,85,2.48,US,1674371347
119,kashi,39.4547,75.9797,-2.53,52,21,1.92,CN,1674371185
120,qrendi,35.8347,14.4583,12.28,82,75,4.63,MT,1674371348
121,moron,-34.6534,-58.6198,22.79,75,0,1.73,AR,1674371225
122,saint-augustin,51.226,-58.6502,-11.93,84,100,2.69,CA,1674371349
123,tura,25.5198,90.2201,24.52,25,0,2.57,IN,1674371350
124,micheweni,-4.9667,39.8333,27.06,81,100,7.27,TZ,1674371350
125,suining,30.508,105.5733,11.27,48,74,1.58,CN,1674371352
126,rabo de peixe,37.8,-25.5833,14.73,58,75,3.09,PT,1674371352
127,katsuura,35.1333,140.3,6.95,82,100,4.92,JP,1674371268
128,greymouth,-42.4667,171.2,17.01,59,30,4.49,NZ,1674371353
129,palimbang,6.2106,124.1894,27.58,73,100,0.41,PH,1674371354
130,caravelas,-17.7125,-39.2481,23.52,93,100,3.83,BR,1674371212
131,gigmoto,13.7796,124.39,26.18,83,42,6.02,PH,1674371355
132,ilulissat,69.2167,-51.1,-23.99,49,100,4.63,GL,1674371171
133,banes,20.9625,-75.7186,22.98,78,27,4.94,CU,1674371356
134,basay,9.4087,122.64,26.33,77,100,5.85,PH,1674371357
135,geraldton,-28.7667,114.6,27.23,61,32,6.69,AU,1674371357
136,hilo,19.7297,-155.09,24.6,84,75,2.57,US,1674371358
137,orcopampa,-15.2661,-72.3417,7.09,85,97,0.83,PE,1674371359
138,natchitoches,31.7668,-93.1335,8.99,100,100,2.06,US,1674371359
139,provideniya,64.3833,-173.3,-26.96,87,95,5.17,RU,1674371361
140,cheyenne,41.14,-104.8203,-2.82,70,100,9.26,US,1674371362
141,parakou,9.3372,2.6303,23.61,29,69,0.62,BJ,1674371363
142,whitehorse,60.7161,-135.0538,-12.99,96,12,1.83,CA,1674371363
143,novobirilyussy,56.9514,90.6661,-27.11,86,83,2.26,RU,1674371364
144,sisimiut,66.9395,-53.6735,-15.78,83,100,10.61,GL,1674371364
145,gaomi,36.3833,119.7528,7.52,52,99,2.15,CN,1674371365
146,los llanos de aridane,28.6585,-17.9182,15.62,82,75,4.63,ES,1674371366
147,poum,-20.2333,164.0167,27.11,84,100,4.75,NC,1674371366
148,te anau,-45.4167,167.7167,16.91,57,25,1.95,NZ,1674371161
149,rio gallegos,-51.6226,-69.2181,7.46,65,3,4.81,AR,1674371368
150,avera,33.194,-82.5271,4.75,90,100,2.16,US,1674371368
151,arraial do cabo,-22.9661,-42.0278,21.92,100,40,2.06,BR,1674371365
152,nikolskoye,59.7035,30.7861,-3.06,96,77,2.26,RU,1674371093
153,mudon,16.2578,97.7164,32.19,27,0,3.35,MM,1674371287
154,praia,14.9215,-23.5087,21.11,64,66,5.73,CV,1674371070
155,borujerd,33.8973,48.7516,2.02,66,4,1.17,IR,1674371370
156,boddam,57.4667,-1.7833,5.21,87,100,13.15,GB,1674371371
157,ranong,9.9658,98.6348,31.13,50,9,1.4,TH,1674371371
158,taoudenni,22.6783,-3.9836,13.05,14,0,4.33,ML,1674371127
159,mokhsogollokh,61.4681,128.9203,-40.28,95,97,2.36,RU,1674371373
160,sibolga,1.7427,98.7792,27.41,79,100,1.36,ID,1674371374
161,macusani,-14.0833,-70.4333,0.85,79,5,1.16,PE,1674371374
162,lac du bonnet,50.2536,-96.0612,-19.2,100,100,1.55,CA,1674371375
163,atar,20.5169,-13.0499,16.38,23,6,4.74,MR,1674371376
164,bonfim,3.0833,-59.95,22.73,84,76,3.98,BR,1674371376
165,sao gabriel,-30.3364,-54.32,21.79,78,0,0.99,BR,1674371377
166,port blair,11.6667,92.75,29.02,70,75,5.14,IN,1674371130
167,chokurdakh,70.6333,147.9167,-40.35,99,92,3.2,RU,1674371378
168,port lincoln,-34.7333,135.8667,20.9,63,5,6.86,AU,1674371379
169,kalmunai,7.4167,81.8167,23.56,91,100,3.48,LK,1674371379
170,new norfolk,-42.7826,147.0587,20.72,62,100,1.59,AU,1674371380
171,qasigiannguit,68.8193,-51.1922,-23.86,75,100,3.8,GL,1674371380
172,sainte-marie,-20.8968,55.5496,30.07,80,40,6.17,RE,1674371381
173,bandarbeyla,9.4942,50.8122,25.13,64,88,9.23,SO,1674371381
174,wajir,1.7471,40.0573,31.05,44,99,7.55,KE,1674371382
175,haines junction,60.7522,-137.5108,-10.33,99,100,0.6,CA,1674371382
176,lasa,46.6166,10.7002,-8.62,87,91,1.47,IT,1674371383
177,flinders,-34.5833,150.8552,21.77,82,100,3.13,AU,1674371384
178,poya,-21.35,165.15,27.11,85,100,2.83,NC,1674371384
179,nouadhibou,20.931,-17.0347,17.31,51,100,8.07,MR,1674371385
180,lebu,-37.6167,-73.65,14.04,91,0,5.05,CL,1674371119
181,caarapo,-22.6342,-54.8222,20.51,89,0,2.4,BR,1674371386
182,cartagena,10.3997,-75.5144,24.79,83,0,2.06,CO,1674371386
183,nador,35.174,-2.9287,13.14,62,75,4.12,MA,1674371387
184,sabzevar,36.2126,57.6819,3.36,42,0,2.71,IR,1674371387
185,faanui,-16.4833,-151.75,27.17,68,92,3.17,PF,1674371388
186,dubai,25.2582,55.3047,21.96,49,0,4.12,AE,1674370568
187,vrede,-27.4257,29.1659,24.66,22,7,2.25,ZA,1674371389
188,norman wells,65.282,-126.8329,-16.82,96,100,3.15,CA,1674371389
189,beloha,-25.1667,45.05,31.4,50,0,6.69,MG,1674371390
190,russell,32.3502,-85.1999,8.56,87,100,3.6,US,1674371390
191,shushtar,32.0455,48.8567,16.76,42,20,0.16,IR,1674371391
192,zelenoborskiy,66.845,32.3622,-8.19,91,100,2.33,RU,1674371392
193,san quintin,30.4833,-115.95,12.27,57,0,1.2,MX,1674371211
194,vestmanna,62.1564,-7.1664,6.51,93,100,6.69,FO,1674371393
195,plettenberg bay,-34.0527,23.3716,22.79,66,1,2.44,ZA,1674371393
196,cayenne,4.9333,-52.3333,24.02,100,75,1.03,GF,1674371394
197,saint simons,31.1352,-81.3901,12.02,69,100,3.6,US,1674371394
198,cherskiy,68.75,161.3,-44.79,99,37,1.0,RU,1674371114
199,amuntai,-2.4177,115.2494,27.33,86,100,1.26,ID,1674371395
200,panguna,-6.3164,155.4848,24.45,77,100,0.38,PG,1674371396
201,cheremshan,54.6667,51.5,-10.88,89,100,2.6,RU,1674371396
202,changji,44.0167,87.3167,-10.56,62,0,2.0,CN,1674371397
203,sundsvall,62.3913,17.3063,-18.02,85,73,1.03,SE,1674371397
204,porto novo,6.4965,2.6036,25.7,84,100,0.89,BJ,1674371398
205,makakilo city,21.3469,-158.0858,25.18,74,20,3.6,US,1674371141
206,vidim,56.4088,103.1106,-35.6,89,79,1.4,RU,1674371399
207,asfi,32.2994,-9.2372,13.81,80,4,3.58,MA,1674371399
208,port augusta,-32.5,137.7667,29.52,34,0,8.4,AU,1674371400
209,chifeng,42.2683,118.9636,-12.71,48,100,5.82,CN,1674371400
210,karratha,-20.7377,116.8463,31.9,49,94,5.17,AU,1674371401
211,marechal candido rondon,-24.5561,-54.0567,21.07,84,100,1.43,BR,1674371402
212,bambous virieux,-20.3428,57.7575,28.14,74,75,5.66,MU,1674371402
213,komsomolskiy,40.4272,71.7189,-0.6,59,100,1.03,UZ,1674371403
214,sabang,5.8933,95.3214,26.94,77,23,7.88,ID,1674371403
215,tiznit,29.5833,-9.5,8.89,67,0,0.53,MA,1674371404
216,sao joao da barra,-21.6403,-41.0511,22.46,93,99,4.54,BR,1674371235
217,lorengau,-2.0226,147.2712,28.07,77,100,1.7,PG,1674371405
218,luba,3.4568,8.5547,26.67,82,100,2.01,GQ,1674371405
219,kulachi,31.9286,70.4592,16.8,20,6,3.42,PK,1674371406
220,airai,-8.9266,125.4092,21.09,73,86,1.21,TL,1674371406
221,fortuna,40.5982,-124.1573,9.25,95,100,0.0,US,1674371407
222,padang,-0.9492,100.3543,30.03,80,100,2.66,ID,1674371408
223,hofn,64.2539,-15.2082,3.04,90,83,16.5,IS,1674371186
224,aljezur,37.3191,-8.8033,8.33,71,0,3.77,PT,1674371408
225,damara,4.9608,18.7035,27.74,22,95,0.8,CF,1674371409
226,newton,42.337,-71.2092,-0.89,77,100,4.63,US,1674371306
227,port hardy,50.6996,-127.4199,4.64,80,19,5.09,CA,1674371410
228,jacareacanga,-6.2222,-57.7528,20.95,99,60,0.69,BR,1674371410
229,namibe,-15.1961,12.1522,22.41,75,100,2.26,AO,1674371132
230,san pedro,14.35,121.0167,30.57,64,20,5.14,PH,1674371411
231,puerto escondido,15.85,-97.0667,23.49,71,4,1.95,MX,1674371412
232,banjar,-8.19,114.9675,31.38,61,14,1.92,ID,1674371412
233,iskilip,40.7353,34.4739,7.93,47,0,0.05,TR,1674371413
234,gushikawa,26.3544,127.8686,22.77,62,40,6.69,JP,1674371413
235,mount gambier,-37.8333,140.7667,19.83,59,0,5.86,AU,1674371414
236,radyvyliv,50.1299,25.2558,2.61,92,84,3.0,UA,1674371415
237,madimba,-10.4,40.3333,22.69,94,100,2.67,TZ,1674371415
238,ust-kulom,61.6864,53.6902,-5.25,96,98,2.03,RU,1674371416
239,coquimbo,-29.9533,-71.3436,17.85,82,100,1.03,CL,1674370997
240,ixtapa,20.7,-105.2,17.29,90,2,1.2,MX,1674371417
241,sheridan,44.8333,-106.9173,2.21,64,100,2.06,US,1674371417
242,asha,54.9973,57.2722,-8.45,81,100,1.89,RU,1674371418
243,hamilton,39.1834,-84.5333,-0.07,85,100,1.34,US,1674370848
244,joshimath,30.5667,79.5667,11.29,25,0,3.17,IN,1674371419
245,craig,40.5153,-107.5464,-10.21,71,75,0.0,US,1674371419
246,urumqi,43.801,87.6005,-12.47,62,0,2.0,CN,1674371420
247,marawi,7.9986,124.2928,19.96,96,100,1.44,PH,1674371420
248,bang saphan,11.2126,99.5117,29.97,39,12,4.13,TH,1674371421
249,mingaora,34.7758,72.3625,8.8,72,67,1.9,PK,1674371422
250,pisco,-13.7,-76.2167,22.03,88,0,1.54,PE,1674371422
251,eyl,7.9803,49.8164,26.75,57,22,10.12,SO,1674371423
252,berlevag,70.8578,29.0864,3.0,80,100,7.72,NO,1674371423
253,tilichiki,60.4667,166.1,-28.08,98,100,8.18,RU,1674371424
254,rosarito,32.3333,-117.0333,11.18,50,0,3.6,MX,1674371405
255,thompson,55.7435,-97.8558,-14.91,85,100,2.06,CA,1674371425
256,lompoc,34.6391,-120.4579,7.55,76,0,0.0,US,1674371209
257,belfast,54.5833,-5.9333,8.33,93,100,6.17,GB,1674371426
258,kununurra,-15.7667,128.7333,27.99,78,92,8.75,AU,1674371427
259,uthal,25.8072,66.6219,19.42,21,0,1.66,PK,1674371427
260,ostrovnoy,68.0531,39.5131,-4.14,81,100,9.34,RU,1674371428
261,garoua,9.3,13.4,25.15,20,100,1.07,CM,1674371429
262,chapada dos guimaraes,-15.4606,-55.7497,19.81,90,100,1.81,BR,1674371429
263,tashara,55.5195,83.5094,-22.38,87,100,4.32,RU,1674371430
264,chino valley,34.7575,-112.4538,-1.8,75,0,2.06,US,1674371431
265,touros,-5.1989,-35.4608,25.21,84,33,3.4,BR,1674371431
266,butaritari,3.0707,172.7902,27.29,77,100,7.12,KI,1674371432
267,naze,28.3667,129.4833,17.26,76,100,9.45,JP,1674371432
268,bengkulu,-3.8004,102.2655,27.64,76,82,3.41,ID,1674371433
269,aklavik,68.2191,-135.0107,-24.74,97,100,2.67,CA,1674371433
270,coihaique,-45.5752,-72.0662,11.97,82,40,1.03,CL,1674371434
271,derzhavinsk,51.1,66.3167,-11.52,73,0,1.36,KZ,1674371435
272,monterey,36.2505,-121.2516,5.65,1,13,1.96,US,1674371435
273,yerofey pavlovich,53.9667,121.9667,-29.45,83,100,1.39,RU,1674371436
274,chara,56.9064,118.2631,-33.61,96,100,0.8,RU,1674371437
275,ponta do sol,32.6667,-17.1,17.62,72,74,3.63,PT,1674371437
276,bardiyah,31.7561,25.0865,14.07,53,0,1.19,LY,1674371438
277,hailar,49.2,119.7,-32.27,85,9,2.34,CN,1674371438
278,buraydah,26.326,43.975,17.39,41,97,3.63,SA,1674371439
279,husavik,66.0449,-17.3389,-0.1,78,99,7.28,IS,1674371439
280,anadyr,64.75,177.4833,-27.44,84,100,1.9,RU,1674371440
281,narsaq,60.9167,-46.05,-18.88,64,40,5.14,GL,1674371441
282,swellendam,-34.0226,20.4417,22.86,62,12,2.18,ZA,1674371441
283,bella union,-30.2752,-57.6007,22.7,75,0,1.54,UY,1674371442
284,roma,43.2128,-75.4557,-0.92,83,100,1.54,US,1674371442
285,pahrump,36.2083,-115.9839,1.81,70,0,0.16,US,1674371443
286,litovko,49.2361,135.1742,-28.88,93,7,0.98,RU,1674371444
287,ruteng,-8.6136,120.4721,22.96,60,100,0.35,ID,1674371444
288,klaksvik,62.2266,-6.589,7.51,86,100,13.57,FO,1674371445
289,nehe,48.4833,124.8333,-28.13,87,29,1.69,CN,1674371446
290,kabansk,52.0486,106.6528,-30.19,82,100,4.42,RU,1674371446
291,yengema,8.7167,-11.1667,17.47,98,99,0.54,SL,1674371447
292,ahipara,-35.1667,173.1667,20.83,80,5,2.82,NZ,1674371447
293,les cayes,18.2,-73.75,21.73,82,53,1.86,HT,1674371448
294,apatou,5.155,-54.3472,21.25,99,73,0.59,GF,1674371448
295,pecos,31.4229,-103.4932,5.72,38,0,2.06,US,1674371449
296,romilly-sur-seine,48.5108,3.7263,0.66,88,100,5.11,FR,1674371450
297,tshikapa,-6.4167,20.8,22.69,88,96,1.44,CD,1674371450
298,burns lake,54.2331,-125.7533,-12.32,98,13,0.62,CA,1674371451
299,pangody,65.85,74.4859,-14.02,95,100,2.08,RU,1674371452
300,beira,-19.8436,34.8389,29.72,63,100,2.31,MZ,1674371452
301,badiraguato,25.3667,-107.5167,8.17,36,0,1.89,MX,1674371453
302,san jose del guaviare,2.5729,-72.6459,21.26,80,99,0.78,CO,1674371453
303,semey,50.4111,80.2275,-26.88,76,0,4.0,KZ,1674371176
304,pryozerne,45.2698,36.3303,5.76,78,49,5.06,UA,1674371454
305,kalabo,-14.97,22.6814,20.01,90,100,4.06,ZM,1674371455
306,sao desiderio,-12.3633,-44.9733,19.94,99,94,1.02,BR,1674371456
307,sobolevo,54.4299,31.8996,-0.11,89,100,2.94,RU,1674371456
308,zabol,32.25,67.25,-1.26,66,100,3.26,AF,1674371457
309,jarva-jaani,59.0386,25.8864,-3.16,90,100,3.62,EE,1674371458
310,bilma,18.6853,12.9164,17.55,15,0,2.92,NE,1674371458
311,moratuwa,6.773,79.8816,27.47,65,100,1.85,LK,1674371459
312,catuday,16.2923,119.8062,28.32,61,100,3.76,PH,1674371460
313,soyo,-6.1349,12.3689,25.73,86,100,1.89,AO,1674371460
314,puerto madryn,-42.7692,-65.0385,22.17,42,54,11.12,AR,1674371461
315,bilibino,68.0546,166.4372,-38.86,97,100,1.77,RU,1674371462
316,vanavara,60.34,102.2797,-36.18,93,74,1.59,RU,1674371405
317,pandan,14.0453,124.1694,25.64,86,16,6.42,PH,1674371463
318,nichinan,31.6,131.3667,10.14,79,100,3.98,JP,1674371463
319,tartus,34.889,35.8866,15.84,56,0,5.04,SY,1674371464
320,adrar,20.5022,-10.0711,13.35,23,1,5.19,MR,1674371465
321,lavrentiya,65.5833,-171.0,-31.45,94,35,2.54,RU,1674371465
322,ketchikan,55.3422,-131.6461,2.99,93,100,1.54,US,1674371466
323,puerto suarez,-18.95,-57.8,23.77,80,60,0.98,BO,1674371467
324,monchique,37.3177,-8.5553,6.74,78,1,2.74,PT,1674371467
325,pochutla,15.7432,-96.4661,21.57,69,5,1.98,MX,1674371468
326,bonthe,7.5264,-12.505,23.46,86,7,1.92,SL,1674371468
327,japura,-0.3167,102.35,29.73,65,100,1.3,ID,1674371470
328,bowen,-20.0167,148.2333,27.41,73,7,6.69,AU,1674371470
329,seoul,37.5683,126.9778,2.69,62,100,0.91,KR,1674371471
330,amahai,-3.3333,128.9167,29.19,69,98,3.45,ID,1674371382
331,taywarah,33.35,64.4167,-8.84,62,1,0.53,AF,1674371472
332,osa,57.2829,55.4567,-9.57,87,100,2.95,RU,1674371472
333,nikolayevskaya,47.6139,41.5023,-0.52,66,100,7.73,RU,1674371473
334,iquitos,-3.7481,-73.2472,23.02,94,75,1.03,PE,1674371473
335,broome,42.2506,-75.833,-0.17,83,100,1.79,US,1674371474
336,hay river,60.8156,-115.7999,-9.02,79,75,7.72,CA,1674371475
337,tupiza,-21.45,-65.7167,13.91,59,100,2.57,BO,1674371475
338,krasnogorsk,55.8225,37.3181,-3.81,80,75,3.0,RU,1674371476
339,kidal,18.4411,1.4078,19.22,14,0,1.92,ML,1674371476
340,seymchan,62.8833,152.4333,-35.28,98,95,1.6,RU,1674371477
341,wanning,18.8003,110.3967,24.24,76,93,3.61,CN,1674371478
342,natal,-5.795,-35.2094,24.36,94,20,1.54,BR,1674371478
343,abaza,52.655,90.0928,-19.41,83,5,0.86,RU,1674371479
344,bollnas,61.3482,16.3946,-13.32,95,28,1.33,SE,1674371480
345,san cristobal,7.7669,-72.225,17.28,71,100,1.06,VE,1674371480
346,ajdabiya,30.7554,20.2263,10.6,46,100,4.41,LY,1674371481
347,ancud,-41.8697,-73.8203,14.8,97,100,1.89,CL,1674371482
348,bangolo,7.0069,-7.475,20.28,99,25,0.97,CI,1674371482
349,belmonte,-15.8631,-38.8828,25.06,85,100,3.62,BR,1674371483
350,sampit,-2.5333,112.95,29.43,64,100,2.08,ID,1674371483
351,bafoulabe,13.8065,-10.8321,22.17,24,74,0.71,ML,1674371241
352,progreso,21.2833,-89.6667,21.17,79,15,6.07,MX,1674371484
353,svetlyy,54.675,20.1347,-0.97,92,79,4.33,RU,1674371485
354,balkhash,46.844,74.9804,-12.66,78,0,6.0,KZ,1674371486
355,ishikari,43.2397,141.3539,-4.3,68,40,6.69,JP,1674371486
356,jamame,0.0722,42.7506,29.14,61,100,6.81,SO,1674371487
357,muroto,33.2833,134.15,9.89,61,97,2.69,JP,1674371488
358,leeton,-34.5667,146.4,27.72,29,51,2.59,AU,1674371488
359,ambon,-3.6954,128.1814,31.08,66,40,5.14,ID,1674371489
360,frankenberg,51.0667,8.8,0.61,97,100,3.28,DE,1674371489
361,nabire,-3.3667,135.4833,28.98,69,100,2.35,ID,1674371490
362,grindavik,63.8424,-22.4338,-3.03,80,75,19.55,IS,1674371362
363,mehamn,71.0357,27.8492,2.97,81,75,12.35,NO,1674371491
364,vikesa,58.6376,6.0913,2.16,91,55,2.74,NO,1674371492
365,zhoucheng,35.9122,116.3117,8.8,39,100,0.64,CN,1674371492
366,teguldet,57.3064,88.1667,-26.91,86,100,2.77,RU,1674371493
367,mercedes,-34.6515,-59.4307,20.44,55,0,1.88,AR,1674371484
368,kapit,2.0167,112.9333,29.14,77,98,0.94,MY,1674371493
369,prince rupert,54.3161,-130.3201,3.83,93,100,5.14,CA,1674371494
370,muriwai beach,-36.8167,174.45,21.35,82,8,3.34,NZ,1674371495
371,kendari,-3.945,122.4989,27.13,82,100,1.17,ID,1674371495
372,tirumullaivasal,11.2333,79.8333,26.19,65,100,5.85,IN,1674371496
373,clyde river,70.4692,-68.5914,-30.87,69,100,6.69,CA,1674371475
374,hinton,53.4001,-117.5857,-2.3,97,100,2.23,CA,1674371497
375,la ronge,55.1001,-105.2842,-6.86,93,75,2.06,CA,1674371497
376,jieshi,22.8134,115.8257,20.22,74,82,2.99,CN,1674371498
377,fez,34.0372,-4.9998,10.14,100,75,1.54,MA,1674371498
378,mar del plata,-38.0023,-57.5575,20.53,79,0,3.13,AR,1674371499
379,san patricio,28.017,-97.5169,14.91,90,0,2.38,US,1674371499
380,sur,22.5667,59.5289,21.2,50,31,4.92,OM,1674371500
381,pasni,25.2631,63.471,17.49,31,0,9.9,PK,1674371500
382,valle nacional,17.7833,-96.3167,21.32,80,0,1.56,MX,1674371501
383,shitkino,56.3703,98.3543,-31.83,89,76,1.44,RU,1674371502
384,sitka,57.0531,-135.33,2.94,87,100,4.63,US,1674371502
385,coihueco,-36.6167,-71.8333,14.93,45,0,1.86,CL,1674371215
386,ust-kuyga,70.0167,135.6,-40.09,99,100,2.92,RU,1674371504
387,wakkanai,45.4094,141.6739,-10.01,73,75,11.32,JP,1674371375
388,parati,-23.2178,-44.7131,21.88,94,6,1.87,BR,1674371504
389,villa guerrero,18.8667,-99.65,16.82,57,0,2.05,MX,1674371505
390,alofi,-19.0595,-169.9187,27.21,78,18,6.3,NU,1674371332
391,camana,-16.6228,-72.7111,21.71,85,83,1.99,PE,1674371506
392,irbeyskoye,55.6428,95.4522,-29.88,84,13,0.58,RU,1674371507
393,florida,28.7505,-82.5001,15.46,90,75,2.57,US,1674371507
394,hualmay,-11.0964,-77.6139,20.78,82,79,2.47,PE,1674371508
395,wagar,16.1525,36.2032,25.43,56,3,3.27,SD,1674371508
396,belfort,47.6333,6.8667,-1.72,96,81,1.3,FR,1674371510
397,sulphur springs,33.1385,-95.6011,8.3,100,0,2.57,US,1674371511
398,kemin,42.7846,75.6892,1.6,70,0,1.84,KG,1674371511
399,nemuro,43.3236,145.575,-6.46,66,97,4.36,JP,1674371513
400,constitucion,-35.3333,-72.4167,15.16,65,0,2.5,CL,1674371456
401,carutapera,-1.195,-46.02,23.68,93,72,2.43,BR,1674371514
402,cestas,44.7435,-0.6791,-2.77,95,6,1.03,FR,1674371514
403,bukachacha,52.9833,116.9167,-29.1,77,100,2.2,RU,1674371515
404,san juan bautista,-14.0108,-75.7358,21.55,73,100,0.85,PE,1674371515
405,fjerritslev,57.0813,9.2664,-1.08,84,6,2.94,DK,1674371516
406,tezu,27.9167,96.1667,24.84,23,2,2.0,IN,1674371516
407,longyearbyen,78.2186,15.6401,0.91,69,75,7.72,SJ,1674371517
408,moranbah,-22.0016,148.0466,29.27,55,58,6.95,AU,1674371517
409,lazaro cardenas,17.9583,-102.2,20.84,84,0,2.0,MX,1674371518
410,swakopmund,-22.6833,14.5333,18.25,87,100,2.52,NA,1674371519
411,itumba,-9.4,33.1833,17.75,94,100,1.52,TZ,1674371519
412,iqaluit,63.7506,-68.5145,-12.39,84,100,1.34,CA,1674371294
413,carndonagh,55.25,-7.2667,8.48,96,100,5.06,IE,1674371520
414,qarqin,37.4185,66.0436,0.89,58,99,0.33,AF,1674371521
415,maloy,61.9353,5.1136,3.85,67,8,12.94,NO,1674371521
416,regina,50.4501,-104.6178,-8.94,85,100,3.6,CA,1674371522
417,bacolod,10.6667,122.95,27.91,72,100,5.21,PH,1674371522
418,pimenta bueno,-11.6725,-61.1936,21.11,98,100,1.05,BR,1674371523
419,acapulco,16.8634,-99.8901,22.9,83,0,1.03,MX,1674371411
420,yenagoa,4.9247,6.2642,26.84,78,92,1.59,NG,1674371524
421,epe,6.5841,3.9834,24.42,90,100,1.14,NG,1674371525
422,high rock,26.6208,-78.2833,21.01,78,100,6.28,BS,1674371525
423,labuhan,-6.8844,112.2051,29.27,71,86,2.89,ID,1674371526
424,arica,-18.475,-70.3042,20.13,64,0,2.06,CL,1674371417
425,stornoway,58.2093,-6.3865,8.98,94,100,11.83,GB,1674371527
426,dalhousie,32.5333,75.9833,7.48,50,5,2.43,IN,1674371528
427,fukue,32.6881,128.8419,8.69,88,100,8.37,JP,1674371528
428,biak,-0.9131,122.8766,27.65,69,100,0.33,ID,1674371529
429,ziarat,30.3823,67.7282,-1.72,32,0,1.74,PK,1674371529
430,muros,42.7762,-9.0603,4.91,88,70,4.61,ES,1674371530
431,victoria,22.2855,114.1577,23.3,75,94,3.58,HK,1674371416
432,saint-francois,46.4154,3.9054,-1.31,80,100,3.6,FR,1674371531
433,horsham,51.064,-0.3272,2.36,89,7,0.51,GB,1674371532
434,pangnirtung,66.1451,-65.7125,-16.25,98,100,1.24,CA,1674371261
435,saint george,37.1041,-113.5841,0.33,71,0,2.06,US,1674371533
436,princeton,25.5384,-80.4089,23.89,96,75,1.54,US,1674371533
437,howard springs,-12.497,131.047,34.99,65,97,2.47,AU,1674371534
438,kupang,-10.1667,123.5833,31.32,66,20,3.6,ID,1674371534
439,kalianget,-7.05,113.9333,28.03,67,74,1.88,ID,1674371535
440,okhotsk,59.3833,143.3,-22.46,78,100,5.54,RU,1674371536
441,jacksonville beach,30.2947,-81.3931,15.04,93,100,1.54,US,1674371536
442,muli,2.9167,73.5667,27.26,73,35,7.37,MV,1674371537
443,charlottesville,38.0293,-78.4767,0.67,82,0,2.24,US,1674371537
444,rivadavia,-33.1905,-68.4608,24.26,30,1,4.64,AR,1674371538
445,sijunjung,-0.6876,100.9537,29.16,67,100,1.18,ID,1674371538
446,caluquembe,-13.7833,14.6833,14.92,86,100,1.86,AO,1674371539
447,santa leopoldina,-20.1006,-40.5297,22.79,98,100,1.65,BR,1674371539
448,ucluelet,48.9329,-125.5528,4.93,84,20,3.08,CA,1674371540
449,corinto,37.9407,22.9573,11.61,71,55,1.26,GR,1674371541
450,elizabeth city,36.2946,-76.2511,3.34,86,0,0.0,US,1674371541
451,kazachinskoye,57.6953,93.2761,-31.26,90,17,1.8,RU,1674371542
452,chalchihuites,23.4833,-103.8833,4.09,59,0,2.35,MX,1674371542
453,utevka,52.9035,50.9495,-10.55,86,97,2.14,RU,1674371543
454,mount isa,-20.7333,139.5,36.87,14,15,5.14,AU,1674371544
455,mwinilunga,-11.7358,24.4293,19.22,85,100,4.17,ZM,1674371544
456,sembe,1.6481,14.5806,24.48,50,100,1.3,CG,1674371486
457,colac,-38.3333,143.5833,20.65,51,50,5.35,AU,1674371545
458,cleethorpes,53.5605,-0.0323,0.54,100,5,3.09,GB,1674371546
459,springbok,-29.6643,17.8865,21.32,35,20,1.54,ZA,1674371546
460,balfour,-26.6633,28.5902,24.65,25,9,1.72,ZA,1674371547
461,raga,8.4596,25.678,25.68,17,99,3.09,SS,1674371264
462,araceli,10.5529,119.9913,26.99,77,95,8.58,PH,1674371548
463,itarema,-2.9248,-39.9167,24.77,85,71,3.26,BR,1674371549
464,katherine,-14.4667,132.2667,35.18,41,40,5.66,AU,1674371407
465,kodiak,57.79,-152.4072,-2.27,80,100,1.54,US,1674371550
466,kosovska mitrovica,42.8833,20.8667,3.67,87,98,2.16,XK,1674371550
467,shevchenkove,49.6959,37.1735,-1.72,77,100,4.84,UA,1674371551
468,villazon,-22.0866,-65.5942,10.85,67,100,1.89,BO,1674371551
469,sabla,12.7525,4.7077,21.17,22,95,3.78,NG,1674371552
470,abu zabad,12.35,29.25,22.87,13,4,7.58,SD,1674371552
471,havoysund,70.9963,24.6622,3.13,90,100,13.98,NO,1674371553
472,ormara,25.2088,64.6357,18.82,24,0,6.35,PK,1674371267
473,roseburg,43.2165,-123.3417,4.65,94,100,1.54,US,1674371451
474,aki,33.5,133.9,9.42,64,98,1.23,JP,1674371554
475,presidencia roque saenz pena,-26.7852,-60.4388,22.5,85,97,3.41,AR,1674371555
476,trairi,-3.2778,-39.2689,23.89,90,26,2.1,BR,1674371492
477,tachov,49.7953,12.6337,-0.89,95,100,0.45,CZ,1674371556
478,verkh-suetka,53.3,80.05,-21.91,83,100,3.77,RU,1674371556
479,vao,-22.6667,167.4833,25.22,93,100,12.02,NC,1674371557
480,agadir,30.4202,-9.5982,6.25,66,0,0.36,MA,1674371558
481,caxito,-8.5785,13.6643,26.27,80,97,1.28,AO,1674371558
482,hirara,24.8,125.2833,22.02,75,80,8.16,JP,1674371559
483,oyama,36.3,139.8,6.56,23,98,0.82,JP,1674371560
484,hurghada,27.2574,33.8129,17.99,57,0,8.74,EG,1674371560
485,yar-sale,66.8333,70.8333,-10.66,96,100,1.47,RU,1674371561
486,grojec,51.8625,20.8676,1.38,97,100,4.47,PL,1674371561
487,atambua,-9.1061,124.8925,27.82,67,72,2.58,ID,1674371562
488,high prairie,55.4334,-116.4858,1.87,82,100,5.79,CA,1674371562
489,sorland,67.667,12.6934,5.92,91,100,18.19,NO,1674371563
490,binabalian,16.4202,119.9279,27.7,64,100,3.45,PH,1674371563
491,mlowo,-9.0,32.9833,16.56,93,100,1.08,TZ,1674371564
492,caraquet,47.7941,-64.9386,-10.7,87,32,4.31,CA,1674371564
493,chamba,32.5667,76.1333,13.96,53,28,2.94,IN,1674371565
494,sombrerete,23.6333,-103.65,4.16,53,0,2.47,MX,1674371566
495,sale,34.0389,-6.8166,12.02,100,40,0.0,MA,1674371566
496,antanifotsy,-19.65,47.3167,16.48,96,100,1.37,MG,1674371567
497,ambunti,-4.2365,142.8448,27.32,87,100,0.56,PG,1674371567
498,odweyne,9.4092,45.064,22.58,37,100,0.57,SO,1674371568
499,pizarro,4.9533,-77.366,23.48,94,96,2.93,CO,1674371568
500,puerto carreno,6.189,-67.4859,24.48,66,99,4.32,CO,1674371569
501,great yarmouth,52.6083,1.7305,-4.86,82,5,2.02,GB,1674371569
502,boguchany,58.3814,97.4531,-31.04,88,49,1.38,RU,1674371570
503,aasiaat,68.7098,-52.8699,-28.74,82,89,9.86,GL,1674371571
504,bambanglipuro,-7.95,110.2833,28.75,70,53,4.92,ID,1674371572
505,lianzhou,24.7811,112.3825,18.21,71,100,1.57,CN,1674371572
506,kavieng,-2.5744,150.7967,28.27,75,100,1.45,PG,1674371573
507,vilcun,-38.65,-72.2333,10.41,98,6,0.93,CL,1674371573
508,irece,-11.3042,-41.8558,20.22,83,35,3.11,BR,1674371561
509,emba,48.8264,58.1442,-6.95,67,0,2.43,KZ,1674371574
510,preeceville,51.95,-102.6677,-15.41,99,85,2.57,CA,1674371575
511,barreirinha,-2.7933,-57.07,21.89,98,100,0.14,BR,1674371480
512,that phanom,16.9364,104.7104,31.5,19,2,2.42,TH,1674371576
513,esperance,-33.8667,121.9,23.33,55,85,9.28,AU,1674371576
514,noshiro,40.2039,140.0242,-1.54,54,100,6.46,JP,1674371577
515,juba,4.8517,31.5825,29.18,24,97,2.45,SS,1674371577
516,safford,32.834,-109.7076,6.73,45,0,3.6,US,1674371332
517,kaeng khoi,14.5862,100.9976,36.2,13,0,1.03,TH,1674371578
518,impfondo,1.6381,18.0667,27.4,56,25,1.71,CG,1674371579
519,bindura,-17.3019,31.3306,18.81,92,100,0.68,ZW,1674371579
520,sinazongwe,-17.2614,27.4618,21.39,95,100,1.49,ZM,1674371580
521,camacupa,-12.0167,17.4833,18.31,70,100,1.67,AO,1674371581
522,gorele,41.0308,39.0031,12.63,55,0,0.38,TR,1674371581
523,tual,-5.6667,132.75,27.84,74,100,7.38,ID,1674371582
524,alice springs,-23.7,133.8833,33.75,13,11,5.66,AU,1674371583
525,sola,-13.8833,167.55,28.11,73,100,3.11,VU,1674371584
526,douglas,41.3,-96.167,-1.9,91,100,2.06,US,1674371585
527,kabare,-2.4683,28.8242,19.89,73,100,0.75,CD,1674371586
528,port hawkesbury,45.6169,-61.3485,-2.23,82,75,6.26,CA,1674371586
529,vega de alatorre,20.0333,-96.6333,21.81,86,0,2.08,MX,1674371587
530,riyadh,24.6877,46.7219,16.08,38,41,5.52,SA,1674371473
531,sao jose da coroa grande,-8.8978,-35.1478,24.99,78,31,2.81,BR,1674371588
532,san martin,-33.081,-68.4681,26.3,31,2,4.46,AR,1674371588
533,zhigansk,66.7697,123.3711,-42.23,98,100,2.13,RU,1674371589
534,waw,7.7029,27.9953,29.32,15,53,4.35,SS,1674371589
535,nong chik,6.8436,101.178,26.92,80,71,5.47,TH,1674371590
536,hobyo,5.3505,48.5268,26.49,68,97,9.88,SO,1674371591
537,kovdor,67.5662,30.4758,-3.46,84,100,5.95,RU,1674371591
538,rawson,-43.3002,-65.1023,21.53,46,59,8.56,AR,1674371592
539,beitbridge,-22.2167,30.0,28.25,53,68,7.69,ZW,1674371593
540,bernalillo,35.05,-106.6673,-1.26,69,20,4.12,US,1674371593
541,mapiripan,2.8892,-72.1256,21.83,74,82,1.96,CO,1674371594
542,port hedland,-20.3167,118.5667,35.03,52,12,7.2,AU,1674371594
543,cabedelo,-6.9811,-34.8339,24.37,82,29,2.98,BR,1674371548
544,oyem,1.5995,11.5793,22.34,81,96,1.35,GA,1674371595
545,songea,-10.6833,35.65,18.92,91,100,1.7,TZ,1674371596
546,yarada,17.65,83.2667,29.18,48,40,4.12,IN,1674371597
547,mtambile,-5.3833,39.7,27.61,75,100,6.81,TZ,1674371598
548,henties bay,-22.116,14.2845,18.78,85,95,2.5,NA,1674371598
549,puerto leguizamo,-0.1934,-74.7819,22.06,91,92,0.87,CO,1674371599
550,tuy hoa,13.0833,109.3,24.58,83,100,3.55,VN,1674371599
551,bondoukou,8.0333,-2.8,21.83,83,2,1.91,CI,1674371600
552,ongandjera,-17.8833,15.0667,20.71,71,100,2.4,NA,1674371601
553,mareeba,-17.0,145.4333,27.49,78,49,3.19,AU,1674371601
554,lhokseumawe,5.1801,97.1507,27.19,77,100,2.37,ID,1674371602
555,melo,-32.3667,-54.1833,20.47,91,0,1.94,UY,1674371603
556,mirante do paranapanema,-22.2919,-51.9064,21.23,89,4,1.47,BR,1674371603
557,ahraura,25.0167,83.0167,23.83,39,82,2.49,IN,1674371604
558,buchanan,5.8808,-10.0467,24.88,87,26,2.36,LR,1674371604
559,half moon bay,37.4636,-122.4286,11.02,78,100,2.57,US,1674371400
560,cam ranh,11.9214,109.1591,26.98,74,40,5.66,VN,1674371605
561,fereydun kenar,36.6864,52.5225,8.85,58,7,1.16,IR,1674371606
562,alakurtti,66.9672,30.3491,-5.18,90,100,2.89,RU,1674371607
563,shimoda,34.6667,138.95,8.2,65,98,3.73,JP,1674371607
564,pathein,16.7833,94.7333,32.99,19,99,1.67,MM,1674371608
565,champerico,14.3,-91.9167,24.27,78,4,3.8,GT,1674371608
566,meulaboh,4.1363,96.1285,28.55,65,74,2.3,ID,1674371609
567,palmer,42.1584,-72.3287,-0.28,73,100,2.06,US,1674371486
568,hasaki,35.7333,140.8333,7.9,72,100,4.29,JP,1674371610
